seconds_elapsed,gyroscope_z,gyroscope_y,gyroscope_x,location_altitude,location_speedAccuracy,location_bearingAccuracy,location_latitude,location_altitudeAboveMeanSeaLevel,location_bearing,location_horizontalAccuracy,location_verticalAccuracy,location_longitude,location_speed,gyroscopeUncalibrated_z,gyroscopeUncalibrated_y,gyroscopeUncalibrated_x,orientation_yaw,orientation_qx,orientation_qz,orientation_roll,orientation_qw,orientation_qy,orientation_pitch,accelerometerUncalibrated_z,accelerometerUncalibrated_y,accelerometerUncalibrated_x,compass_magneticBearing,accelerometer_z,accelerometer_y,accelerometer_x
0.000000,0.021227,-0.000023,0.006202,155.057018,-1.000000,-1.000000,52.223741,124.467018,-1.000000,129.180910,3.257426,20.941267,-1.000000,0.022022,0.002816,-0.000928,-2.889663,0.051852,-0.950862,0.034348,0.125306,-0.278337,0.573189,-0.826456,-0.539238,0.032101,135.148306,0.110598,0.038055,0.046698
0.100000,-0.003485,0.240983,0.115346,,,,,,,,,,,-0.001504,0.235982,0.117282,-2.888801,0.057418,-0.948944,0.044485,0.127049,-0.282919,0.584222,-0.844806,-0.550235,0.034912,136.767451,-0.108438,0.007251,-0.014252
0.200000,0.108022,0.103269,0.234599,,,,,,,,,,,0.107919,0.106112,0.236401,-2.884999,0.066752,-0.945773,0.061045,0.131117,-0.289553,0.600706,-0.804192,-0.550880,0.056525,139.244164,0.217097,0.128910,0.053703
0.300000,0.042580,0.062674,0.135517,,,,,,,,,,,0.045513,0.058858,0.133829,-2.874754,0.069159,-0.942504,0.060860,0.135838,-0.297389,0.617965,-0.794922,-0.582587,0.033459,140.123777,0.178793,-0.030571,-0.150242
0.400000,0.015448,-0.058061,0.090168,154.851116,-1.000000,-1.000000,52.223769,124.261116,-1.000000,35.000000,5.981706,20.941377,-1.000000,0.017331,-0.066977,0.091645,-2.872586,0.068701,-0.940459,0.057553,0.136271,-0.303715,0.631046,-0.795731,-0.589709,0.047197,140.883223,0.092489,0.002434,0.000040
0.500000,-0.051533,-0.030355,0.059625,,,,,,,,,,,-0.050048,-0.034122,0.064813,-2.875170,0.068708,-0.939234,0.057284,0.134952,-0.308063,0.640047,-0.759843,-0.592696,0.040044,141.179201,0.401238,0.052433,-0.054776
0.600000,0.008494,0.098242,-0.197117,149.885437,0.030000,-1.000000,52.223773,119.295437,-1.000000,3.535534,4.000000,20.941270,0.000000,0.005291,0.095974,-0.198160,-2.879221,0.070591,-0.940606,0.063647,0.134071,-0.303793,0.631598,-0.804507,-0.579198,0.059148,141.127316,-0.009457,0.112559,0.078870
0.700000,0.063427,0.016402,0.073948,,,,,,,,,,,0.065399,0.017723,0.072151,-2.872691,0.072568,-0.941001,0.066496,0.137609,-0.300516,0.625555,-0.837080,-0.596288,0.042093,141.122629,-0.266912,-0.111716,-0.114980
0.800000,-0.001013,-0.007588,0.148977,,,,,,,,,,,0.001360,-0.013865,0.143306,-2.868697,0.071389,-0.939639,0.061691,0.138714,-0.304523,0.633652,-0.816595,-0.600333,0.045793,141.104411,-0.098742,-0.072719,-0.037408
0.900000,-0.110944,0.119388,0.206445,,,,,,,,,,,-0.107387,0.104136,0.204119,-2.875006,0.073943,-0.937330,0.067225,0.136521,-0.311907,0.649651,-0.807271,-0.606961,0.057181,142.156015,-0.136230,-0.008557,0.053716
1.000000,0.072737,-0.237692,-0.118464,,,,,,,,,,,0.064816,-0.225941,-0.113259,-2.878750,0.080786,-0.935326,0.081820,0.137016,-0.315955,0.660108,-0.733801,-0.599173,0.104408,144.076494,0.502561,0.134485,0.394688
1.100000,0.052501,0.243376,0.227462,,,,,,,,,,,0.071955,0.238738,0.214009,-2.861508,0.074631,-0.934481,0.062504,0.142004,-0.317761,0.662518,-0.778143,-0.605634,0.028116,142.503745,0.094343,0.061160,-0.238871
1.200000,-0.006633,0.374414,0.230165,,,,,,,,,,,-0.014923,0.363323,0.240609,-2.877175,0.089939,-0.928524,0.096704,0.140133,-0.331737,0.696197,-0.755013,-0.632594,0.079640,146.622089,0.080545,0.087712,0.068547
1.300000,-0.218256,-0.343346,0.028135,,,,,,,,,,,-0.220528,-0.321454,0.035410,-2.894843,0.099438,-0.926914,0.122518,0.136266,-0.335140,0.705513,-0.722174,-0.643394,0.108792,149.632074,0.337927,0.051245,0.164924
1.400000,-0.201015,0.080250,0.052225,,,,,,,,,,,-0.196455,0.052318,0.052774,-2.918726,0.087633,-0.930316,0.106326,0.122433,-0.334375,0.699179,-0.781644,-0.652715,0.055667,147.622524,-0.170476,-0.086068,-0.247897
1.500000,-0.215981,0.196057,-0.280012,149.924072,0.030000,-1.000000,52.223773,119.334072,-1.000000,3.660199,4.000000,20.941270,0.000000,-0.213224,0.198333,-0.279576,-2.940753,0.099737,-0.932587,0.141308,0.117739,-0.326242,0.684102,-0.717917,-0.650008,0.059402,149.798080,0.456506,-0.162361,-0.451671
1.600000,-0.139917,-0.155716,-0.090975,,,,,,,,,,,-0.140834,-0.170661,-0.093673,-2.959917,0.100739,-0.936648,0.151556,0.110072,-0.316865,0.663375,-0.818539,-0.592818,0.149889,150.181192,-0.400994,0.226889,0.283808
1.700000,0.396044,-0.627764,-0.322159,,,,,,,,,,,0.388982,-0.631319,-0.327788,-2.951267,0.085830,-0.941122,0.118597,0.108687,-0.308005,0.641403,-0.790933,-0.560568,0.150539,146.589262,0.024918,0.358283,0.521032
1.800000,0.036179,0.086748,-0.074591,,,,,,,,,,,0.043800,0.088424,-0.078996,-2.908107,0.067280,-0.943828,0.066980,0.121003,-0.300015,0.621945,-0.841226,-0.601811,0.024112,140.792085,-0.276595,-0.172114,-0.289773
1.900000,0.025341,0.041699,-0.078622,,,,,,,,,,,0.020088,0.049879,-0.080069,-2.907537,0.071618,-0.944410,0.076645,0.122714,-0.296454,0.615706,-0.809386,-0.602534,0.049423,141.021761,0.026731,-0.235789,-0.121847
2.000000,0.408700,-0.343488,-0.078102,,,,,,,,,,,0.411963,-0.343433,-0.082386,-2.877691,0.058663,-0.944379,0.040447,0.131493,-0.295532,0.610847,-0.802364,-0.552867,0.056882,138.196988,0.144282,0.183179,0.204964
2.100000,-0.003933,0.215326,-0.024242,,,,,,,,,,,0.001399,0.188312,-0.014645,-2.851840,0.048147,-0.943298,0.009841,0.139122,-0.297494,0.612178,-0.803555,-0.579222,0.004904,135.469960,0.158536,-0.027195,-0.005028
2.200000,0.114660,0.177767,0.153714,,,,,,,,,,,0.116306,0.180538,0.147875,-2.847452,0.059023,-0.941982,0.031107,0.144302,-0.297233,0.615075,-0.844798,-0.563580,0.038350,137.006728,-0.259008,0.121956,0.109255
2.300000,0.043050,0.134187,0.006377,,,,,,,,,,,0.043257,0.137896,0.008811,-2.839963,0.068522,-0.939656,0.047756,0.150203,-0.299638,0.623282,-0.789894,-0.583549,0.034740,138.653753,0.216074,-0.008195,-0.034456
2.400000,-0.017832,-0.053860,-0.034034,,,,,,,,,,,-0.015095,-0.049640,-0.039440,-2.834153,0.068318,-0.939790,0.045962,0.152706,-0.298001,0.619939,-0.802255,-0.599364,0.011914,138.632376,0.093757,-0.163862,-0.236811
2.500000,0.031030,-0.203607,0.111022,149.967346,0.060000,-1.000000,52.223773,119.377346,-1.000000,3.798186,4.000000,20.941270,0.000000,0.035703,-0.213412,0.114052,-2.834060,0.060483,-0.939222,0.028143,0.149956,-0.302824,0.627326,-0.810503,-0.577585,0.006291,137.573950,-0.001989,0.084312,-0.193000
2.600000,0.016968,-0.001387,-0.132215,,,,,,,,,,,0.019478,-0.006702,-0.129199,-2.832695,0.056264,-0.939471,0.018805,0.149201,-0.303254,0.626838,-0.759186,-0.535796,0.014731,136.956536,0.478805,0.507211,-0.003347
2.700000,0.082121,-0.319626,0.000794,,,,,,,,,,,0.074137,-0.306903,-0.002101,-2.832154,0.051048,-0.941067,0.008934,0.148148,-0.299689,0.617718,-0.793451,-0.522946,0.040733,135.524113,0.238884,0.536064,0.327330
2.800000,0.174403,-0.154451,-0.485207,,,,,,,,,,,0.184736,-0.181766,-0.460940,-2.810789,0.032858,-0.943326,-0.032993,0.152581,-0.292770,0.597279,-0.796571,-0.576932,-0.034050,131.564782,0.261181,-0.160883,-0.099410
2.900000,0.023729,0.169786,-0.901190,,,,,,,,,,,0.013922,0.207382,-0.924737,-2.807715,0.034366,-0.953926,-0.016532,0.158552,-0.251949,0.514025,-0.946887,-0.522960,-0.023279,125.353264,-0.739528,-0.240033,-0.042138
3.000000,1.416249,-1.536320,-0.435022,,,,,,,,,,,1.388886,-1.517552,-0.432703,-2.743644,-0.014114,-0.955553,-0.121894,0.179070,-0.231599,0.451989,-0.706862,-0.390445,0.008266,113.177221,1.783385,0.436648,1.084610
3.100000,0.737210,-1.544284,-0.430149,,,,,,,,,,,0.766772,-1.559264,-0.398946,-2.605829,-0.108587,-0.940788,-0.338224,0.224525,-0.228304,0.390486,-0.691783,-0.350230,-0.358936,97.834221,1.876126,0.402915,-0.530717
3.200000,0.283586,-0.384218,-1.272279,,,,,,,,,,,0.291487,-0.420486,-1.278750,-2.605587,-0.177317,-0.938867,-0.450554,0.225623,-0.189275,0.279121,-0.806699,-0.278822,-0.501073,86.994362,0.515137,-0.087008,-0.854528
3.300000,0.186338,-0.506491,-0.923834,,,,,,,,,,,0.188380,-0.500967,-0.924399,-2.624893,-0.202884,-0.941700,-0.470493,0.227984,-0.140972,0.173920,-0.905199,-0.126558,-0.488455,79.544015,-0.332485,0.485570,-0.400780
3.400000,0.412968,-0.035824,-0.851995,,,,,,,,,,,0.406780,-0.073778,-0.838082,-2.631440,-0.233260,-0.938018,-0.511830,0.232377,-0.107567,0.093533,-1.049989,-0.083270,-0.504939,75.377007,-1.766794,0.084167,-0.194099
3.500000,0.525810,-0.449198,-0.337859,150.017761,0.070000,-1.000000,52.223773,119.427761,-1.000000,3.759076,4.000000,20.941271,0.000000,0.520846,-0.373350,-0.402473,-2.629992,-0.239487,-0.937246,-0.497364,0.246543,-0.057008,-0.011317,-0.948276,-0.005098,-0.380879,69.383858,-0.605039,-0.071378,1.011693
3.600000,2.889852,-6.151606,3.175490,,,,,,,,,,,2.789069,-6.038836,3.078411,-2.450458,-0.369277,-0.858733,-0.812153,0.309218,-0.132890,-0.012136,-0.499966,0.630466,0.062061,69.732756,1.876837,6.226978,7.575008
3.700000,4.966148,-4.541927,4.566401,,,,,,,,,,,5.020138,-4.649485,4.579090,-1.897110,-0.562128,-0.573419,-1.361623,0.508870,-0.286589,-0.256130,-0.070338,0.920375,-1.309700,54.392421,1.375303,6.480254,-4.046778
3.800000,1.413891,-1.609399,0.264578,,,,,,,,,,,1.414229,-1.725382,0.385600,-1.517643,-0.587981,-0.360812,-1.506435,0.630352,-0.354269,-0.507261,0.855165,0.362984,-1.667268,40.039262,8.987158,-1.161989,-7.522644
3.900000,2.158330,1.983375,0.005678,,,,,,,,,,,2.167196,1.965428,-0.010654,-1.570265,-0.631232,-0.318639,-1.520444,0.645202,-0.286370,-0.685285,-0.147894,0.610265,-0.670723,31.227909,-1.306363,-0.179037,1.036682
4.000000,1.697684,-0.269700,1.116033,,,,,,,,,,,1.803962,-0.258000,1.140171,-1.411298,-0.616752,-0.266038,-1.298971,0.714705,-0.191369,-0.894595,-0.074423,0.542525,-0.764857,19.059744,0.942873,-2.462874,-1.858085
4.100000,-3.331156,-0.567433,-1.313883,,,,,,,,,,,-3.308117,-0.561051,-1.271267,-1.477526,-0.615889,-0.299101,-1.379599,0.687490,-0.235366,-0.784806,0.039240,0.434241,-1.272154,23.835217,1.594669,-2.516365,-5.513593
4.200000,-1.320438,0.113020,-1.877953,,,,,,,,,,,-1.362696,0.098403,-1.901035,-1.766402,-0.646495,-0.406115,-1.565075,0.579803,-0.282469,-0.546908,-0.044421,0.612103,-0.667686,37.591917,-0.262413,0.871743,1.843354
4.300000,0.030720,-0.239434,-0.192005,,,,,,,,,,,0.004866,-0.220828,-0.263628,-1.917472,-0.672380,-0.445208,-1.628975,0.525349,-0.271232,-0.483519,0.073524,0.458641,-0.894061,41.097963,0.173898,-0.081177,-0.175295
4.400000,0.938079,-0.957734,1.154997,,,,,,,,,,,0.935556,-0.922086,1.158339,-1.845219,-0.672459,-0.404733,-1.645544,0.551029,-0.282402,-0.538565,0.014311,0.712624,-1.052965,38.428076,-0.495625,2.058255,-1.950254
4.500000,-0.846305,-0.281634,0.625528,150.041931,0.060000,-1.000000,52.223773,119.451931,-1.000000,3.747027,4.000000,20.941271,0.000000,-0.816011,-0.388464,0.714786,-1.712866,-0.661404,-0.349515,-1.685355,0.573772,-0.332322,-0.555250,0.010657,0.565041,-0.748761,36.488164,-0.850429,0.243760,0.980902
4.600000,-1.428701,0.099517,0.410078,,,,,,,,,,,-1.373641,0.164641,0.303284,-1.732951,-0.642401,-0.398815,-1.634718,0.558905,-0.339661,-0.463782,0.062090,0.331987,-0.791045,41.302254,0.022565,-1.161712,0.977115
4.700000,-0.060392,-0.046738,0.509761,,,,,,,,,,,-0.156956,-0.053319,0.542428,-1.635133,-0.595939,-0.418480,-1.603023,0.556447,-0.399979,-0.334680,0.065359,0.287639,-0.729645,48.720549,0.352778,-0.339048,2.105285
4.800000,2.411015,0.177923,0.506435,,,,,,,,,,,2.339261,0.160644,0.516005,-1.606275,-0.610580,-0.377799,-1.585973,0.591198,-0.365611,-0.462515,0.031873,0.665428,-0.757301,43.223838,0.226207,2.261727,1.438641
4.900000,3.409208,0.302359,0.091140,,,,,,,,,,,3.448704,0.299154,0.091582,-1.583394,-0.652436,-0.279493,-1.541776,0.655918,-0.252147,-0.798933,0.004945,0.746425,-0.759846,25.753874,0.173937,0.329649,-0.731462
5.000000,1.366714,0.180900,0.110266,,,,,,,,,,,1.417475,0.190382,0.110880,-1.543285,-0.670173,-0.209597,-1.476772,0.692526,-0.164239,-1.034610,-0.016988,0.912784,-0.689519,12.193733,0.279435,0.522149,-1.739458
5.100000,-0.575178,0.233609,-0.092785,,,,,,,,,,,-0.533647,0.220698,-0.086892,-1.546719,-0.672371,-0.205212,-1.458940,0.696151,-0.145128,-1.068921,-0.035937,0.931964,-0.691626,9.666361,0.194231,0.522020,-2.031489
5.200000,-1.112109,0.559820,-0.273389,,,,,,,,,,,-1.082991,0.548604,-0.272166,-1.610211,-0.670921,-0.245877,-1.473718,0.682298,-0.153446,-0.997944,-0.063493,0.609541,-0.641551,12.965546,-0.081661,-2.222660,-1.058616
5.300000,-0.695937,0.284993,0.099697,,,,,,,,,,,-0.755355,0.294721,0.087325,-1.658325,-0.658394,-0.307088,-1.456465,0.664921,-0.173093,-0.877810,-0.066953,1.106662,-0.557384,19.011597,0.033121,3.313303,0.798068
5.400000,0.096045,0.115975,0.522580,,,,,,,,,,,0.063010,0.117404,0.517330,-1.620830,-0.642756,-0.321301,-1.399558,0.672958,-0.175138,-0.851832,-0.122702,0.891754,-0.825893,20.664635,-0.115854,1.449625,-1.633897
5.500000,0.149204,-0.701520,0.419799,149.882324,0.730000,59.226981,52.223769,119.292324,186.328125,3.770132,4.000000,20.941271,0.620000,0.229067,-0.698012,0.420517,-1.526325,-0.635334,-0.287233,-1.353913,0.695600,-0.172211,-0.903055,-0.118982,0.724414,-0.741330,17.603592,0.113844,-0.736394,-1.402029
5.600000,-1.961855,-0.380789,-0.039201,,,,,,,,,,,-1.942878,-0.389904,-0.022516,-1.527334,-0.620733,-0.314785,-1.406280,0.677466,-0.236085,-0.765557,-0.111029,0.702841,-0.817802,24.752647,0.045159,0.091317,-1.199671
5.700000,-3.198705,-0.509162,-0.363922,,,,,,,,,,,-3.143420,-0.530053,-0.379671,-1.601539,-0.601746,-0.388423,-1.480546,0.621579,-0.314331,-0.528978,-0.110971,0.469157,-0.915787,37.343567,-0.334263,-0.046537,-1.078993
5.800000,-1.996792,-0.435585,0.258415,,,,,,,,,,,-1.826237,-0.338784,0.321227,-1.647984,-0.573597,-0.455848,-1.553119,0.547931,-0.402345,-0.265181,-0.027718,0.024911,-0.503593,51.205779,-0.170873,-2.186556,5.107516
5.900000,-0.472131,0.149507,0.103385,,,,,,,,,,,-0.437862,0.100143,0.061005,-1.619196,-0.542556,-0.479045,-1.548510,0.530568,-0.441113,-0.153707,0.029430,0.360181,-1.007730,58.385630,0.464268,1.766282,-0.278268
6.000000,0.758849,0.097222,-0.224083,,,,,,,,,,,0.949400,0.128808,-0.197773,-1.635387,-0.545972,-0.483476,-1.549620,0.526006,-0.437426,-0.152011,-0.008025,0.255884,-0.795348,58.963682,0.215738,0.922995,1.570184
6.100000,2.356592,0.254848,0.099142,,,,,,,,,,,2.347770,0.217485,0.112176,-1.634924,-0.576556,-0.444407,-1.520024,0.570768,-0.378351,-0.328079,-0.045082,0.327002,-0.965154,49.764257,0.019535,0.050652,0.113892
6.200000,3.552417,-0.026349,-0.006157,,,,,,,,,,,3.614819,0.023422,-0.030426,-1.608892,-0.620027,-0.360324,-1.506753,0.628325,-0.296608,-0.602979,-0.006133,0.769524,-0.698607,35.196586,0.401424,1.675521,1.344462
6.300000,1.153082,0.327957,-0.099501,,,,,,,,,,,0.922859,0.306362,-0.110982,-1.595654,-0.656024,-0.278320,-1.477161,0.672383,-0.199491,-0.880987,-0.013414,0.830197,-1.109470,20.408386,0.412787,0.614406,-4.905968
6.400000,0.263492,0.266400,-0.533960,,,,,,,,,,,0.303789,0.327962,-0.546682,-1.639385,-0.666347,-0.276476,-1.482748,0.670844,-0.171524,-0.925952,0.022459,0.912762,-0.707280,17.189181,0.990103,1.296444,-1.234255
6.500000,1.356663,0.109735,0.382457,149.773315,0.870000,87.466795,52.223765,119.183315,237.304688,3.954495,6.000000,20.941268,0.620000,1.483599,0.011690,0.420117,-1.646014,-0.671827,-0.263365,-1.458461,0.678403,-0.136396,-0.997122,-0.133949,0.826219,-0.576700,13.503053,-0.851476,-0.205249,-0.521074
6.600000,2.321510,-0.603564,0.548245,,,,,,,,,,,2.377390,-0.784472,0.740026,-1.520824,-0.674882,-0.190220,-1.359774,0.707798,-0.078707,-1.184341,-0.076765,0.657446,-0.448157,75.524339,-0.054487,-2.493824,-0.858405
6.700000,3.560652,-1.601136,0.596209,,,,,,,,,,,3.553669,-1.622976,0.332615,-0.584066,-0.653778,-0.038293,-0.596172,0.752088,-0.046879,-1.363806,-0.098804,1.002631,-0.089493,350.908052,0.463672,0.084114,-0.256000
6.800000,0.683955,0.074283,-0.196594,,,,,,,,,,,0.595122,0.347079,-0.098271,0.876472,-0.662788,0.087594,0.748909,0.743534,-0.002227,-1.403742,-0.130669,0.571037,0.153778,338.573953,-0.076766,-4.185231,0.505186
6.900000,0.237295,-1.208310,-0.271948,,,,,,,,,,,0.088804,-1.293147,-0.320717,1.090984,-0.663876,0.101203,0.987588,0.739793,0.028554,-1.357354,-0.139584,1.321495,-0.018877,334.643612,-0.156282,3.074120,-2.519253
7.000000,-0.251260,0.494243,-0.068150,,,,,,,,,,,-0.252602,0.602034,-0.045103,1.113766,-0.667447,0.124397,0.911415,0.733940,-0.017873,-1.392952,-0.081017,1.113834,0.398535,337.144207,0.110620,1.519705,3.239003
7.100000,0.202690,0.068519,-0.075340,,,,,,,,,,,0.297674,-0.226300,-0.055554,1.077499,-0.671497,0.098834,0.938531,0.734342,0.000994,-1.403629,0.005457,1.111308,0.038237,336.960266,0.956301,1.290168,-0.832994
7.200000,0.177172,-0.579871,-0.157918,,,,,,,,,,,0.122512,-0.417123,-0.207795,1.213185,-0.669159,0.138634,0.988058,0.729753,-0.019499,-1.381357,-0.076982,0.858293,-0.093361,336.301444,0.246684,-1.321651,-2.550025
7.300000,-0.119870,-0.541214,-0.412590,,,,,,,,,,,-0.141844,-0.560969,-0.431161,1.393091,-0.680022,0.148800,1.134793,0.717112,-0.032653,-1.397957,-0.029562,1.016463,0.106470,336.644669,0.474230,0.293813,-0.554176
7.400000,-0.531527,-0.288312,-1.145466,,,,,,,,,,,-0.578459,-0.263204,-1.279028,1.794629,-0.698292,0.154484,1.479838,0.695504,-0.066727,-1.442649,0.161572,1.118063,0.124464,338.806964,1.396659,0.942255,0.065009
7.500000,-0.149897,-0.645926,-3.234409,149.812500,1.020000,-1.000000,52.223764,119.222500,-1.000000,4.991325,6.000000,20.941267,0.000000,-0.032357,-0.676399,-3.344496,-0.688549,-0.764374,0.140268,2.715012,0.616709,-0.115481,-1.354660,0.399710,1.425005,0.303018,342.232440,2.124083,4.533669,2.171934
7.600000,1.139594,-0.725003,-3.740182,,,,,,,,,,,1.215124,-0.768276,-3.727647,-2.954044,-0.859777,0.162476,2.870670,0.458335,-0.144804,-0.993572,0.361806,1.126031,0.190187,337.893808,-1.728382,3.128234,0.397196
7.700000,1.659562,-0.928245,-3.156348,,,,,,,,,,,1.656293,-0.932505,-3.073410,-2.973918,-0.926527,0.208691,2.752133,0.277271,-0.135122,-0.608663,0.555666,0.602582,0.222852,324.398709,-1.976167,0.743369,-0.836958
7.800000,0.934372,-1.101806,-1.623029,,,,,,,,,,,0.811308,-1.092384,-1.462245,-2.972879,-0.948372,0.258432,2.637146,0.135102,-0.120187,-0.324504,0.428738,0.150197,0.101631,308.293852,-3.817460,-1.318844,-3.469869
7.900000,-0.860988,-0.215083,0.816808,,,,,,,,,,,-0.951515,-0.140191,0.996550,-2.922235,-0.938955,0.293414,2.567911,0.105441,-0.144019,-0.286568,0.344655,-0.085704,0.303860,303.528929,-4.449435,-3.692737,-2.276465
8.000000,-1.427648,0.158749,2.998336,,,,,,,,,,,-1.435138,0.161528,3.055886,-2.897504,-0.911094,0.298609,2.572808,0.210951,-0.184225,-0.518469,0.421621,0.209047,0.361381,314.537847,-3.118586,-2.822720,-1.018441
8.100000,-1.131451,0.133733,3.621701,,,,,,,,,,,-1.141826,0.134552,3.646249,-3.005781,-0.844414,0.311043,2.496415,0.386070,-0.195251,-0.887301,0.500691,1.019922,0.420694,326.759888,0.084925,2.589130,0.509869
8.200000,-0.739391,-0.327686,1.669627,,,,,,,,,,,-0.744992,-0.332809,1.704903,2.451402,-0.773963,0.323375,2.308088,0.506928,-0.196912,-1.149188,0.640051,0.960124,0.406471,332.780030,3.456680,0.465981,0.978864
8.300000,-0.542671,-0.825134,0.732405,,,,,,,,,,,-0.550325,-0.796535,0.763816,2.935960,-0.727939,0.334726,2.125912,0.557558,-0.216435,-1.276077,0.150726,1.247055,0.414000,336.460923,-0.053044,2.930575,1.644104
8.400000,-0.533481,-1.070321,-0.026531,,,,,,,,,,,-0.524574,-1.082172,-0.034238,2.957537,-0.696178,0.363760,2.034384,0.560711,-0.261452,-1.330076,0.036996,1.157732,0.020349,339.825932,-0.800127,1.672870,-2.027503
8.500000,-0.586121,-1.179613,0.310491,150.058655,0.950000,46.957793,52.223770,119.468655,12.304688,5.173380,6.000000,20.941270,0.270000,-0.589572,-1.186446,0.308503,3.002734,-0.663066,0.384391,1.974358,0.563168,-0.308294,-1.392921,-0.007593,1.025600,-0.035793,344.164511,-0.680180,0.456637,-1.876671
8.600000,-0.333579,-0.727430,0.342943,,,,,,,,,,,-0.341553,-0.739258,0.347812,2.884827,-0.626546,0.408740,1.757660,0.566578,-0.345264,-1.446914,0.067441,0.981844,0.071945,347.931466,0.421209,-0.111463,-0.472557
8.700000,-0.093942,-0.376989,0.093617,,,,,,,,,,,-0.099170,-0.391972,0.099054,2.721212,-0.604125,0.425741,1.532934,0.566211,-0.364900,-1.469327,-0.009752,0.998662,0.065820,350.019546,-0.072173,0.043183,-0.338910
8.800000,0.111694,0.122431,0.012625,,,,,,,,,,,0.112023,0.104476,0.012930,2.689049,-0.600417,0.431792,1.485826,0.563897,-0.367516,-1.466200,-0.009523,0.999419,0.010808,350.267073,-0.016490,0.048736,-0.936100
8.900000,0.126316,0.485219,-0.013586,,,,,,,,,,,0.124613,0.474866,-0.011019,2.688017,-0.609052,0.425131,1.517265,0.567710,-0.354921,-1.455493,0.003706,1.003464,0.030086,349.168138,0.098934,0.096563,-0.814869
9.000000,0.169228,0.495207,-0.123383,,,,,,,,,,,0.172763,0.496034,-0.123474,2.752514,-0.625290,0.412097,1.634138,0.570877,-0.336488,-1.438892,-0.008501,0.999068,0.063692,347.321949,-0.165427,0.071971,-0.675305
9.100000,0.089993,0.466936,-0.067096,,,,,,,,,,,0.090221,0.465246,-0.071880,2.826731,-0.640344,0.398034,1.756348,0.572911,-0.321321,-1.426200,0.059740,0.992555,0.125163,345.932340,0.333970,0.032649,-0.128424
9.200000,0.118375,0.344779,0.119308,,,,,,,,,,,0.121289,0.337888,0.113574,2.801802,-0.649001,0.389376,1.769329,0.577199,-0.306585,-1.415629,0.031024,0.965219,0.216571,344.927726,0.004485,-0.233726,0.657079
9.300000,0.071148,0.349170,0.209476,,,,,,,,,,,0.069710,0.356448,0.211913,2.668293,-0.652364,0.380921,1.679338,0.588461,-0.288075,-1.411135,0.067418,0.989500,0.181064,343.703725,0.510958,0.032755,0.181657
9.400000,0.072281,-0.393814,0.135211,,,,,,,,,,,0.079259,-0.381288,0.134171,2.565671,-0.649648,0.385211,1.581286,0.592234,-0.280696,-1.401883,0.103299,1.007463,0.020686,343.001982,0.985462,0.207499,-1.449342
9.500000,-0.056050,-0.781809,0.007781,149.486328,0.950000,-1.000000,52.223776,118.896328,-1.000000,4.665756,6.000000,20.941272,0.000000,-0.056247,-0.781868,0.012079,2.513834,-0.634167,0.406052,1.466584,0.586233,-0.298590,-1.404182,0.006021,0.984119,0.174551,344.102569,0.207967,-0.014564,0.125315
9.600000,0.008126,-0.740742,-0.029141,,,,,,,,,,,0.009396,-0.751448,-0.031165,2.532596,-0.618546,0.429680,1.406777,0.573332,-0.322408,-1.405977,-0.056328,0.966129,0.194510,345.475979,-0.295258,-0.202782,0.322910
9.700000,0.036548,-0.474535,0.037642,,,,,,,,,,,0.036339,-0.484846,0.037764,2.527355,-0.604919,0.449058,1.340051,0.563249,-0.339288,-1.404543,-0.057663,0.988571,0.204980,346.618702,-0.196836,0.031257,0.426654
9.800000,0.022303,-0.184019,-0.029860,,,,,,,,,,,0.025883,-0.192677,-0.029769,2.533349,-0.597941,0.460331,1.312146,0.556537,-0.347590,-1.400738,-0.060226,0.988472,0.177061,347.180820,-0.170666,0.020376,0.120137
9.900000,0.004535,-0.008272,-0.007977,,,,,,,,,,,0.005847,-0.014717,-0.007685,2.544795,-0.596175,0.463309,1.313050,0.554023,-0.350682,-1.400522,-0.056345,0.980913,0.179057,347.342860,-0.118745,-0.042204,0.151658
10.000000,0.001663,0.065904,0.033155,,,,,,,,,,,0.005438,0.059208,0.030792,2.540181,-0.596349,0.463744,1.309454,0.554162,-0.349590,-1.398472,-0.039296,0.978040,0.158679,347.052248,0.051369,-0.069765,-0.069959
10.100000,-0.040134,0.221666,-0.020172,,,,,,,,,,,-0.039033,0.214402,-0.016729,2.526528,-0.598256,0.459842,1.308112,0.557316,-0.346447,-1.400089,-0.018607,1.001654,0.174240,347.046961,0.243258,0.156227,0.106129
10.200000,-0.021642,0.307788,-0.159937,,,,,,,,,,,-0.021425,0.303455,-0.154354,2.578290,-0.606349,0.449465,1.385340,0.559636,-0.342208,-1.405082,-0.033348,0.993523,0.180881,346.710290,-0.020509,0.068513,0.187452
10.300000,0.048781,0.318353,-0.336434,,,,,,,,,,,0.051460,0.307149,-0.340728,2.751141,-0.621088,0.436350,1.584747,0.555302,-0.339770,-1.404990,0.006290,0.979784,0.173833,346.087651,0.035638,-0.071118,0.070062
10.400000,-0.079986,0.281959,-0.049474,,,,,,,,,,,-0.079242,0.290265,-0.054539,2.870247,-0.633854,0.420695,1.739246,0.556162,-0.334535,-1.406522,-0.000574,0.962126,0.119746,345.772317,-0.263402,-0.220922,-0.388244
10.500000,0.041365,0.160768,0.099835,149.670654,0.720000,99.233858,52.223776,119.080654,18.984375,4.485187,6.000000,20.941273,0.000000,0.041665,0.158748,0.095881,2.860377,-0.636608,0.414957,1.746862,0.560081,-0.329912,-1.408801,0.052708,0.994008,0.136359,345.655495,0.229690,0.054180,-0.259860
10.600000,0.012834,0.117197,0.023952,,,,,,,,,,,0.014524,0.108583,0.032675,2.796452,-0.636845,0.413682,1.695829,0.564536,-0.323406,-1.407033,0.103093,0.999390,0.072597,345.415917,0.834993,0.133615,-0.849851
10.700000,-0.003804,0.262060,-0.205546,,,,,,,,,,,-0.000596,0.250941,-0.205570,2.870500,-0.644146,0.406113,1.786769,0.563268,-0.320712,-1.404126,0.029936,0.977303,0.171794,345.201321,-0.085579,-0.087457,0.117127
10.800000,-0.055579,0.628836,-0.193496,,,,,,,,,,,-0.059691,0.620367,-0.196762,2.997880,-0.658112,0.386169,1.958714,0.565122,-0.313531,-1.403533,-0.000107,0.992934,0.230396,344.837330,-0.593977,0.061866,0.752483
10.900000,0.176862,0.624427,-0.083828,,,,,,,,,,,0.179658,0.631275,-0.083522,3.039620,-0.675883,0.363208,2.070192,0.570320,-0.293069,-1.391313,0.162334,0.967606,0.136748,343.660978,0.799241,-0.149240,-0.255263
11.000000,-0.263497,0.128589,-0.291559,,,,,,,,,,,-0.250598,0.138467,-0.270883,1.217429,-0.686311,0.347211,2.172386,0.572349,-0.284247,-1.386055,0.343436,1.058278,0.027562,343.225159,2.369168,0.768298,-1.156144
11.100000,-0.225619,-0.705390,-0.936491,,,,,,,,,,,-0.226071,-0.707735,-0.963915,-2.799994,-0.700193,0.336104,2.518742,0.544815,-0.315564,-1.347718,0.163326,0.911328,0.297581,345.096666,-0.300187,-0.809669,1.637100
11.200000,-0.476312,-0.515074,0.663556,,,,,,,,,,,-0.475940,-0.506498,0.663461,-2.656568,-0.684703,0.344970,2.607191,0.543403,-0.341533,-1.370545,0.023666,1.094292,-0.038283,347.073258,-1.371341,1.254007,-1.311214
11.300000,0.029137,-0.389684,0.493565,,,,,,,,,,,0.030619,-0.396421,0.485584,-2.757379,-0.657194,0.368537,2.451286,0.554438,-0.353249,-1.423216,0.033385,0.898244,0.121729,348.743047,-0.779402,-0.865677,0.160177
11.400000,-0.169217,-0.911188,0.160157,,,,,,,,,,,-0.174887,-0.906814,0.173486,-2.889142,-0.630785,0.394115,2.250850,0.556701,-0.369707,-1.460418,0.137865,0.966794,-0.157057,350.221145,0.673201,-0.275435,-2.320994
11.500000,-0.019829,-0.569284,-0.156246,149.591125,0.900000,82.990459,52.223778,119.001125,327.656250,4.665197,6.000000,20.941273,0.350000,-0.023923,-0.592362,-0.152537,-2.816567,-0.613048,0.417694,2.237982,0.540921,-0.396276,-1.464280,0.170992,0.969040,0.087372,351.860601,1.042164,-0.247381,0.075541
11.600000,0.188314,0.052345,0.086010,,,,,,,,,,,0.197877,0.030419,0.075575,-2.822638,-0.613676,0.427103,2.207745,0.529807,-0.400341,-1.446057,0.100366,1.077306,0.077463,351.706527,0.245105,0.829756,-0.244413
11.700000,0.080607,-0.005924,-0.122897,,,,,,,,,,,0.065774,0.000533,-0.089684,-2.921313,-0.611919,0.429261,2.113407,0.533496,-0.395802,-1.450110,0.067706,1.031786,0.230302,351.416698,0.088538,0.436076,1.382836
11.800000,0.858265,0.188829,-1.449042,,,,,,,,,,,0.865734,0.170135,-1.469843,-2.680973,-0.647085,0.425981,2.342249,0.487757,-0.401416,-1.341739,0.092528,0.938892,0.406514,349.036748,-0.770905,-0.408175,2.279417
11.900000,0.072698,0.850601,0.356322,,,,,,,,,,,0.087001,0.853404,0.343842,-2.652669,-0.679723,0.406376,2.430367,0.474839,-0.383616,-1.278160,0.180460,0.766176,0.224139,346.066961,-0.197637,-1.875298,0.368519
12.000000,-0.284011,0.023365,-0.328383,,,,,,,,,,,-0.287250,0.017953,-0.323307,-2.613207,-0.681737,0.393197,2.496908,0.484521,-0.381837,-1.290202,0.376251,1.007896,0.141310,346.595422,1.387519,0.421738,-0.208342
12.100000,-0.122388,0.208151,0.176271,,,,,,,,,,,-0.116207,0.205393,0.168043,-2.544867,-0.684988,0.381646,2.579471,0.486688,-0.385032,-1.289377,0.034908,1.070131,0.065842,347.286169,-1.904457,1.151631,-0.842969
12.200000,-0.210017,0.408107,0.352692,,,,,,,,,,,-0.213192,0.409911,0.353440,-2.526117,-0.678608,0.370282,2.630843,0.508500,-0.379124,-1.329302,0.218292,0.961108,0.031665,348.199494,0.098352,-0.106600,-0.865367
12.300000,-0.160213,0.128558,0.156953,,,,,,,,,,,-0.155956,0.124248,0.161493,-2.522297,-0.673248,0.363185,2.658615,0.524875,-0.373265,-1.360072,0.220689,0.965735,-0.024315,348.815596,0.359354,-0.117683,-1.184283
12.400000,-0.183485,0.235509,-0.076757,,,,,,,,,,,-0.188996,0.233800,-0.072503,-2.435914,-0.671779,0.351516,2.763471,0.533874,-0.374306,-1.372684,0.161678,0.971297,0.060156,349.544048,-0.246972,-0.063910,-0.083898
12.500000,0.136364,0.343021,0.054730,149.543518,0.720000,90.934270,52.223780,118.953518,16.875000,4.447970,6.000000,20.941272,0.180000,0.131625,0.328188,0.046502,-2.417092,-0.677585,0.341236,2.807593,0.536822,-0.369084,-1.367493,0.116365,1.037498,0.207832,349.574820,-0.711899,0.559593,1.394688
12.600000,0.047860,0.803221,0.381463,,,,,,,,,,,0.057421,0.794319,0.376993,-2.533111,-0.684597,0.328158,2.756218,0.552992,-0.343002,-1.383196,0.152925,0.986125,-0.001688,348.426745,-0.186227,0.034507,-0.754892
12.700000,0.023321,0.520724,0.261543,,,,,,,,,,,0.020036,0.527368,0.270016,-2.612394,-0.685934,0.308449,2.753029,0.578225,-0.316112,-1.417919,0.174623,0.981200,-0.042970,347.886536,0.327669,-0.076586,-0.991742
12.800000,0.068080,0.109056,0.075690,,,,,,,,,,,0.069396,0.116270,0.075366,-2.692251,-0.688372,0.300156,2.710310,0.587702,-0.301081,-1.428280,0.143127,0.983617,-0.062798,347.276235,0.121941,-0.058152,-1.194689
12.900000,0.103181,-0.327119,0.121343,,,,,,,,,,,0.103696,-0.322823,0.121078,-2.772163,-0.685606,0.306219,2.624168,0.588807,-0.299094,-1.433349,0.133267,0.997522,-0.027362,347.070715,0.153318,0.077503,-0.940690
13.000000,0.125283,-0.730601,-0.007732,,,,,,,,,,,0.128261,-0.726715,-0.007083,-2.866555,-0.677768,0.327579,2.480813,0.581309,-0.308678,-1.431609,0.153989,0.974440,-0.047626,346.797098,0.424771,-0.159474,-1.302988
13.100000,0.176278,-0.888733,-0.101553,,,,,,,,,,,0.172679,-0.893586,-0.101363,-2.906387,-0.667103,0.357840,2.359371,0.564401,-0.328930,-1.419726,0.113838,0.973444,0.036314,346.986480,0.056421,-0.159720,-0.660920
13.200000,0.276475,-0.638819,0.157283,,,,,,,,,,,0.277832,-0.645804,0.148151,-3.005390,-0.657027,0.390098,2.185039,0.546860,-0.342023,-1.400316,0.066673,1.009470,-0.009174,346.597329,-0.306264,0.242152,-1.459932
13.300000,0.304614,-0.573680,0.223452,,,,,,,,,,,0.307970,-0.577922,0.230329,1.821308,-0.642882,0.422574,1.926086,0.538052,-0.344281,-1.385169,0.104539,1.013876,-0.017369,345.882330,0.392508,0.313377,-1.853955
13.400000,0.241752,-0.442322,-0.304134,,,,,,,,,,,0.243031,-0.451525,-0.269834,3.014513,-0.633690,0.448564,1.806470,0.523910,-0.350241,-1.361903,0.281271,1.243372,0.303278,345.301944,2.423524,2.662535,1.093256
13.500000,0.119676,-0.423058,-1.962442,149.543518,0.804985,-1.000000,52.223780,118.953518,-1.000000,4.461982,6.000524,20.941272,0.180000,0.131196,-0.402127,-1.940589,-2.862800,-0.657474,0.445138,2.157553,0.472622,-0.381251,-1.289820,0.345068,1.116353,0.362877,345.035863,1.735189,1.478067,1.295458
13.600000,-0.251025,-1.054236,-2.213961,,,,,,,,,,,-0.258995,-1.058051,-2.214025,-2.371416,-0.682901,0.423832,2.538967,0.385802,-0.451582,-1.143869,0.192987,0.909663,0.225150,346.395900,-1.407782,-0.046852,-0.012528
13.700000,0.166038,-1.059905,-1.910094,,,,,,,,,,,0.162612,-1.075553,-1.928562,-2.133003,-0.693757,0.411885,2.631114,0.284536,-0.516781,-0.963733,0.309105,0.784904,0.330905,345.889045,-1.837593,-0.404374,0.497940
13.800000,0.333273,-0.695005,-0.882275,,,,,,,,,,,0.340486,-0.712919,-0.911085,-2.050252,-0.699304,0.409155,2.601893,0.203345,-0.549457,-0.824615,0.431088,0.518901,0.311783,342.920701,-1.440031,-2.141718,-0.363379
13.900000,-0.356261,-0.014906,-0.205579,,,,,,,,,,,-0.337804,-0.022543,-0.213006,-2.011706,-0.696079,0.408238,2.592773,0.176220,-0.563661,-0.783142,0.622682,0.471060,0.287244,341.656673,0.232430,-2.315068,-0.832590
14.000000,-0.409298,-0.545253,-0.304330,,,,,,,,,,,-0.420947,-0.538930,-0.287598,-1.935036,-0.676591,0.408526,2.618191,0.172506,-0.587736,-0.794836,0.802158,0.593265,0.423932,343.734763,1.946575,-1.047886,0.803130
14.100000,-0.287439,-0.523743,-0.602795,,,,,,,,,,,-0.274530,-0.531476,-0.612701,-1.860467,-0.661067,0.408021,2.613438,0.141817,-0.613384,-0.758947,0.691612,0.567773,0.462598,343.854333,0.619998,-1.236158,0.948028
14.200000,-0.600721,0.070510,0.070071,,,,,,,,,,,-0.590795,0.039886,0.038277,-1.778774,-0.641888,0.404472,2.634341,0.127939,-0.638692,-0.748981,0.804039,0.688766,0.615652,345.261323,1.604235,0.092606,2.483618
14.300000,-0.726586,0.404998,0.863813,,,,,,,,,,,-0.728656,0.407074,0.863901,-1.724832,-0.621122,0.407093,2.708243,0.172982,-0.646740,-0.835471,0.600595,0.884004,0.252496,349.904567,-0.139124,1.396453,-0.296318
14.400000,-0.598185,0.548111,0.990916,,,,,,,,,,,-0.603160,0.539875,0.984899,-1.679792,-0.598865,0.416340,2.785350,0.227790,-0.644812,-0.944141,0.472835,0.847133,0.201764,354.495256,-0.750100,0.361386,-0.077988
14.500000,-0.379285,0.640635,1.169305,149.517090,0.939149,-1.000000,52.223780,118.927090,-1.000000,4.484743,6.000000,20.941273,0.170000,-0.383114,0.629353,1.162806,-1.658757,-0.581398,0.428139,2.860585,0.288706,-0.628435,-1.063697,0.428908,0.738991,0.095808,357.987530,-0.400433,-1.315279,-0.384502
14.600000,-0.300798,0.617782,1.102937,,,,,,,,,,,-0.302158,0.628365,1.110848,-1.651008,-0.568524,0.438087,2.940804,0.351915,-0.600550,-1.185393,0.367287,0.876788,-0.048534,180.041269,-0.017610,-0.453932,-1.246442
14.700000,-0.097501,0.666955,1.157508,,,,,,,,,,,-0.100195,0.652683,1.149367,-1.645146,-0.553869,0.450782,2.999455,0.402341,-0.572500,-1.295014,0.188655,0.973637,0.029980,1.160278,-0.853552,0.153408,-0.060277
14.800000,-0.067633,1.034770,1.215895,,,,,,,,,,,-0.064964,1.029917,1.223388,-1.689926,-0.546013,0.459186,3.043055,0.460961,-0.527221,-1.416584,0.112137,0.998642,-0.020885,0.772804,-0.339181,0.097484,-0.406488
14.900000,-0.006712,0.346656,0.634458,,,,,,,,,,,0.002153,0.327487,0.615243,-1.695874,-0.540111,0.460510,3.115511,0.507617,-0.488308,-1.510307,0.097128,0.960272,-0.146364,239.931180,0.268838,-0.501358,-1.515658
15.000000,-0.000863,-0.307468,0.076459,,,,,,,,,,,-0.001104,-0.353957,0.065160,-1.726392,-0.533600,0.466720,3.086930,0.515416,-0.481422,-1.537719,0.032819,0.999228,-0.131734,251.840350,0.179068,0.069614,-1.293385
15.100000,-0.047212,-0.687173,-0.150157,,,,,,,,,,,-0.058207,-0.736054,-0.176245,-1.697018,-0.522081,0.478956,3.067679,0.503531,-0.494365,-1.536640,0.007037,1.056726,-0.124504,0.800691,-0.328100,0.579049,-1.159843
15.200000,0.057329,-1.114208,-0.358289,,,,,,,,,,,0.071536,-1.111848,-0.371173,-1.578239,-0.505015,0.495238,1.207523,0.473338,-0.524752,-1.509499,0.005759,0.985548,-0.000574,2.662834,-0.561093,-0.129688,-0.239676
15.300000,-0.012296,-0.868630,-0.690745,,,,,,,,,,,-0.034150,-0.844437,-0.729999,-1.603993,-0.491443,0.509864,2.963542,0.432104,-0.558166,-1.462500,0.085341,0.989497,-0.000015,3.841848,-0.266802,0.023535,-0.158776
15.400000,-0.057743,-0.488119,-1.048049,,,,,,,,,,,-0.042944,-0.487941,-1.038730,-1.462571,-0.491175,0.497606,3.035107,0.391342,-0.598081,-1.370104,0.178047,0.898578,-0.076425,5.046562,-0.217985,-0.821253,-0.813030
15.500000,-0.125111,-0.871566,-0.994740,149.775391,0.804985,-1.000000,52.223785,119.185391,-1.000000,4.355816,6.003778,20.941275,0.180000,-0.131673,-0.903990,-1.011388,-1.394443,-0.492138,0.481432,3.039115,0.349664,-0.635119,-1.273284,0.215089,0.990471,-0.102525,5.755382,-0.786808,0.397970,-1.490728
15.600000,-0.159394,-0.572763,-1.022095,,,,,,,,,,,-0.158785,-0.535137,-1.024303,-1.313353,-0.483479,0.465093,3.029502,0.299718,-0.678090,-1.170218,0.267639,1.017754,0.086143,6.826520,-1.319209,0.786079,0.472503
15.700000,-0.093288,-0.762711,-1.141777,,,,,,,,,,,-0.079980,-0.794769,-1.146691,-1.254831,-0.481103,0.439179,3.024847,0.256438,-0.713781,-1.063547,0.495714,0.810168,0.010077,7.323964,-0.003144,-0.335826,-0.474764
15.800000,0.079198,-0.885340,-1.210896,,,,,,,,,,,0.084800,-0.887818,-1.216341,-1.223732,-0.476868,0.416188,2.967815,0.197663,-0.748220,-0.947106,0.617409,0.793309,0.110031,6.548396,0.371340,-0.171077,0.030698
15.900000,0.302936,-1.178379,-1.522902,,,,,,,,,,,0.349713,-1.221960,-1.568142,-1.202756,-0.473683,0.390318,2.886922,0.126372,-0.778786,-0.815799,0.713121,0.568094,0.226930,3.980706,0.439405,-1.427292,0.343398
16.000000,0.487183,-1.607965,-1.593486,,,,,,,,,,,0.461619,-1.589176,-1.508878,-1.195851,-0.473731,0.358906,2.750663,0.021394,-0.803192,-0.640499,0.949268,0.455281,0.473602,285.286019,1.917302,-1.200550,1.301206
16.100000,-0.239849,-0.359288,0.756338,,,,,,,,,,,-0.313191,-0.312396,0.908164,-1.195233,-0.463941,0.362511,2.644355,-0.038281,-0.807258,-0.582184,1.009790,0.385904,0.543208,352.272625,2.907433,-1.955697,1.937246
16.200000,-1.176385,0.442376,1.368213,,,,,,,,,,,-1.215141,0.555019,1.382360,-1.192717,-0.438221,0.412229,2.650527,0.004856,-0.798297,-0.724533,0.612595,0.753464,0.164285,355.959331,-0.352458,0.752257,-2.045958
16.300000,-0.923963,1.271867,1.621726,,,,,,,,,,,-0.879773,1.267619,1.625546,-1.131197,-0.410399,0.448907,2.795712,0.101517,-0.786570,-0.911186,0.401541,0.979091,0.249759,4.530905,-1.652786,1.942163,0.576010
16.400000,-0.487494,1.116377,1.440081,,,,,,,,,,,-0.463875,1.121766,1.413045,-1.087682,-0.399504,0.481009,2.949166,0.194244,-0.755379,-1.081058,0.417538,0.814343,0.063791,9.990203,-0.437416,-0.601143,-0.231700
16.500000,-0.133865,0.836518,1.037551,150.150391,0.720000,48.668516,52.223799,119.560391,357.187500,4.307060,6.005246,20.941277,0.820000,-0.121392,0.775682,1.014744,-1.047553,-0.398384,0.502981,3.088668,0.265225,-0.719452,-1.209328,0.477187,0.754637,-0.025203,12.308621,1.174614,-1.803466,-0.186982
16.600000,-0.383446,0.000366,0.907756,,,,,,,,,,,-0.381626,-0.110049,0.893786,-0.955571,-0.387444,0.524202,-2.431297,0.307521,-0.693041,-1.305409,0.452405,0.902477,-0.351912,13.307456,2.021418,-0.702141,-3.277973
16.700000,-0.182316,-0.814121,0.814352,,,,,,,,,,,-0.145421,-0.801791,0.803755,-0.760521,-0.348032,0.558477,-2.926481,0.311806,-0.685165,-1.383948,0.275670,0.924066,-0.031427,15.634760,0.923946,-0.728157,-0.308346
16.800000,0.039495,-0.426567,0.578954,,,,,,,,,,,0.021561,-0.403089,0.570082,-0.639141,-0.317141,0.592690,-2.874023,0.301098,-0.676285,-1.450292,0.222835,0.976691,-0.034270,16.818375,1.218693,-0.087267,0.281015
16.900000,0.026417,-0.219784,0.439307,,,,,,,,,,,0.027451,-0.196800,0.431615,-0.471957,-0.298173,0.616138,-2.745999,0.295827,-0.666254,-1.499733,0.154889,0.997885,0.038800,17.221024,0.840569,-0.014422,0.522029
17.000000,0.007730,0.353284,0.397001,,,,,,,,,,,0.008730,0.387000,0.382679,0.013100,-0.291181,0.630652,-2.265053,0.300468,-0.653573,-1.534625,0.102142,1.006177,0.020692,17.144520,0.837458,0.078742,0.503168
17.100000,0.060936,0.373677,0.294236,,,,,,,,,,,0.063315,0.347288,0.285316,1.113257,-0.298422,0.636990,-1.129350,0.316006,-0.636620,-1.544290,0.102943,1.009227,-0.059293,16.577236,0.985384,-0.008829,-0.300396
17.200000,0.001328,0.147151,0.152867,,,,,,,,,,,0.005775,0.138443,0.155515,1.725101,-0.303332,0.641010,-0.497052,0.324045,-0.626165,-1.534632,0.168381,0.977463,-0.067346,16.073855,2.006357,-0.098580,-0.553547
17.300000,-0.141927,-0.454630,-0.496172,,,,,,,,,,,-0.139876,-0.452160,-0.463685,1.430133,-0.292717,0.642452,-0.818096,0.318036,-0.632692,-1.529764,0.270427,1.093753,-0.133646,16.714474,2.932347,0.969921,-1.055304
17.400000,-0.214243,-0.869665,-0.986415,,,,,,,,,,,-0.208756,-0.860472,-1.001027,-0.208270,-0.280587,0.619280,-2.521207,0.288196,-0.674010,-1.491435,0.101562,1.040158,-0.096658,17.997074,0.346462,0.421256,-0.597993
17.500000,-0.122341,-0.595502,-0.239410,150.012757,0.720000,37.689896,52.223812,119.422756,352.968748,4.267311,6.006430,20.941273,1.150000,-0.132248,-0.609083,-0.250979,-0.344431,-0.255100,0.606570,-2.741550,0.257917,-0.707371,-1.428055,0.226186,0.886948,-0.023181,19.860696,0.953657,-1.001945,0.452860
17.600000,0.187197,0.154157,0.279137,,,,,,,,,,,0.176437,0.145619,0.265763,-0.389077,-0.247746,0.607097,-2.818066,0.244107,-0.714416,-1.418752,0.070695,0.813991,0.080263,19.817567,-0.713035,-1.678879,1.226136
17.700000,0.079485,-0.096039,0.226057,,,,,,,,,,,0.095432,-0.105819,0.220844,-0.466727,-0.253974,0.622180,-2.884682,0.245882,-0.698511,-1.462160,0.270634,1.142601,-0.035841,18.617587,1.566381,1.396211,-0.114126
17.800000,0.083899,0.063824,0.457796,,,,,,,,,,,0.081707,0.064872,0.468637,-0.365498,-0.249347,0.636732,-2.786973,0.248607,-0.685959,-1.501080,0.096759,0.951743,-0.055879,18.737472,0.424412,-0.310505,-0.276130
17.900000,0.085644,0.026151,0.043226,,,,,,,,,,,0.089925,0.009757,0.039417,-0.399633,-0.247373,0.644709,-2.828467,0.245865,-0.680222,-1.520499,0.122424,1.090068,0.029401,18.301955,0.635653,0.817073,0.409592
18.000000,0.023909,0.494052,-0.123143,,,,,,,,,,,0.027058,0.485880,-0.112484,-0.498701,-0.257913,0.643504,-2.899684,0.253752,-0.674495,-1.526524,0.097263,1.019098,0.107056,17.728956,0.533457,0.098479,1.180770
18.100000,0.026280,0.279555,-0.983245,,,,,,,,,,,0.023999,0.292076,-0.945937,-0.621489,-0.277793,0.622100,-2.978114,0.262521,-0.683134,-1.481652,0.327290,1.104263,-0.009088,17.233996,2.405336,1.126652,-0.006533
18.200000,0.054443,0.547634,-0.475859,,,,,,,,,,,0.058711,0.530338,-0.531603,-0.765908,-0.303520,0.580689,-3.091783,0.254642,-0.711110,-1.373492,0.130183,0.777145,-0.108072,16.313417,-0.674121,-2.020146,-0.953332
18.300000,-0.069192,0.097609,0.531654,,,,,,,,,,,-0.071095,0.113061,0.524509,-0.745745,-0.313750,0.579829,-3.025982,0.274280,-0.700051,-1.391527,0.279849,1.008061,-0.152377,16.363610,0.978201,0.191541,-1.262759
18.400000,-0.073086,-0.415670,0.373154,,,,,,,,,,,-0.062859,-0.414188,0.383400,-0.682290,-0.299142,0.600214,-2.985694,0.275114,-0.688846,-1.440766,0.226942,0.958580,-0.102794,16.678924,0.994784,-0.318895,-0.861151
18.500000,-0.084696,-0.543819,-0.006984,150.290894,0.790000,26.541550,52.223825,119.700894,336.796870,4.290373,6.005745,20.941260,1.150000,-0.081878,-0.560814,0.011209,-0.541845,-0.275949,0.614251,-2.897866,0.264537,-0.690277,-1.462014,0.226955,1.139351,-0.006346,17.958796,1.221914,1.579595,0.204314
18.600000,0.144865,-0.155788,-0.042495,,,,,,,,,,,0.129828,-0.159034,-0.056443,-0.535401,-0.268225,0.611260,-2.918419,0.254342,-0.699790,-1.443832,0.072644,0.857248,0.118521,18.466487,-0.533747,-1.400128,1.432859
18.700000,0.167068,0.131755,0.118254,,,,,,,,,,,0.166614,0.123865,0.126737,-0.696737,-0.272866,0.618415,-2.454360,0.248009,-0.693963,-1.458212,0.173134,0.892447,0.039079,17.416714,0.625190,-0.989768,0.480469
18.800000,-0.003935,0.605199,-0.357112,,,,,,,,,,,0.008534,0.591920,-0.373282,-0.827872,-0.290835,0.608120,1.217175,0.251045,-0.694560,-1.436002,0.227002,1.223335,-0.055173,16.121842,0.875602,2.162406,-0.612360
18.900000,-0.024952,0.074172,0.392378,,,,,,,,,,,-0.025162,0.085247,0.397891,-0.764086,-0.300803,0.603939,-3.071797,0.270786,-0.686596,-1.446337,0.150542,0.896741,-0.096182,16.280769,0.287888,-0.852754,-0.836036
19.000000,0.041769,-0.048092,-0.100778,,,,,,,,,,,0.040611,-0.057478,-0.095824,-0.743743,-0.297346,0.608825,-3.055498,0.271859,-0.683377,-1.459300,0.188226,0.997330,0.038190,16.532596,0.734889,0.056966,0.422023
19.100000,-0.057482,0.018863,0.229589,,,,,,,,,,,-0.053618,0.021001,0.219564,-0.753708,-0.298972,0.608517,-3.061287,0.272935,-0.682506,-1.459777,0.070280,1.019536,-0.102051,16.392211,-0.409821,0.231765,-0.906688
19.200000,-0.013301,-0.293127,0.118772,,,,,,,,,,,-0.009501,-0.294618,0.126814,-0.691640,-0.289423,0.618762,-3.015451,0.272322,-0.677632,-1.484071,0.101978,0.993565,-0.042207,16.850956,0.168325,-0.022447,-0.286477
19.300000,-0.040572,-0.144335,0.006349,,,,,,,,,,,-0.042183,-0.149868,0.004641,-0.639545,-0.280696,0.622064,-2.986212,0.266217,-0.680712,-1.485336,0.096806,0.955537,-0.012105,17.419900,0.132074,-0.392098,0.019170
19.400000,-0.032508,-0.065002,-0.051832,,,,,,,,,,,-0.030519,-0.069058,-0.050206,-0.608613,-0.277072,0.622461,-2.964405,0.263871,-0.682748,-1.483487,0.136710,1.046158,-0.008990,17.669102,0.498421,0.496670,0.056463
19.500000,0.016538,-0.053841,0.104445,150.418946,0.730000,15.125806,52.223853,119.828946,331.171865,4.266864,6.006443,20.941235,1.870000,0.014398,-0.056348,0.100350,-0.583819,-0.275300,0.622625,-2.942990,0.263432,-0.683482,-1.483081,0.066092,0.896513,0.003781,17.828463,-0.206020,-0.985351,0.214457
19.600000,-0.024853,0.131238,-0.190964,,,,,,,,,,,-0.017303,0.115825,-0.179076,-0.610248,-0.275558,0.623751,-2.970667,0.262381,-0.682747,-1.485279,0.157220,1.149530,-0.004066,17.600273,0.718817,1.550539,0.089652
19.700000,-0.042275,0.387415,0.094866,,,,,,,,,,,-0.051172,0.391835,0.078561,-0.551702,-0.284999,0.612109,-2.878778,0.274395,-0.684659,-1.466993,0.008510,0.818097,0.015953,17.788919,-0.908842,-1.822338,0.433577
19.800000,-0.049105,0.230285,-0.086583,,,,,,,,,,,-0.037951,0.218579,-0.076825,-0.574407,-0.292493,0.613135,-2.877530,0.282567,-0.677236,-1.478985,0.178137,1.194588,-0.083983,17.210122,0.884605,1.946734,-0.601831
19.900000,0.068773,0.114668,0.061417,,,,,,,,,,,0.062969,0.122361,0.056137,-0.529177,-0.299206,0.605768,-2.806499,0.292325,-0.676803,-1.469814,0.066455,0.909399,-0.011703,17.266347,-0.267879,-0.812264,0.213148
20.000000,0.008874,0.076830,-0.101756,,,,,,,,,,,0.017491,0.069952,-0.093568,-0.595189,-0.304043,0.606729,-2.863458,0.293370,-0.673325,-1.475365,0.160760,1.102116,-0.054503,16.838564,0.692263,1.096745,-0.303163
20.100000,0.092228,0.061711,0.009731,,,,,,,,,,,0.084782,0.058770,0.000810,-0.625490,-0.308547,0.600998,-2.884411,0.294653,-0.675850,-1.463036,0.103082,0.860294,-0.003302,16.978303,-0.018094,-1.331623,0.257899
20.200000,0.082636,0.086235,0.003316,,,,,,,,,,,0.087735,0.081248,0.009010,-0.726815,-0.313840,0.603772,-2.978084,0.294378,-0.671046,-1.471697,0.134412,1.022768,-0.019702,16.189920,0.357541,0.302352,-0.051973
20.300000,-0.069493,0.025257,0.008124,,,,,,,,,,,-0.065161,0.022573,0.002806,-0.748405,-0.317189,0.602026,-2.991601,0.296140,-0.670265,-1.469740,0.132031,1.006921,-0.123398,16.024712,0.303657,0.071759,-1.060850
20.400000,-0.019904,-0.238238,-0.002479,,,,,,,,,,,-0.021723,-0.235218,0.002293,-0.679629,-0.311475,0.603264,-2.933815,0.294857,-0.672386,-1.470213,0.088765,0.875249,-0.014507,16.517347,-0.083917,-1.156768,0.082206
20.500000,-0.098417,0.086183,-0.189941,150.642030,0.790000,14.086849,52.223891,120.052029,331.171858,4.264956,6.006500,20.941200,3.110000,-0.100669,0.069566,-0.189307,-0.658797,-0.307269,0.601271,-2.926881,0.290009,-0.678187,-1.459233,0.128087,1.055046,0.007872,16.990764,0.202739,0.486329,0.332691
20.600000,0.008335,0.173117,-0.245811,,,,,,,,,,,0.005667,0.178178,-0.248846,-0.706931,-0.314358,0.590538,-2.965096,0.288741,-0.684849,-1.432353,0.141348,1.101697,-0.026738,16.935107,0.029140,1.050013,0.024643
20.700000,0.167510,-0.099166,0.158922,,,,,,,,,,,0.177521,-0.106898,0.155311,-0.769284,-0.319801,0.590457,-3.018184,0.289242,-0.682208,-1.433829,0.079507,0.877827,0.004114,16.404982,-0.510448,-1.028497,0.144174
20.800000,-0.335085,0.373223,-0.309029,,,,,,,,,,,-0.332386,0.366871,-0.311391,-0.748216,-0.323957,0.583843,-2.981833,0.294526,-0.683594,-1.423089,0.228922,1.316791,-0.143578,16.589505,0.784849,3.131132,-1.139174
20.900000,0.295250,-0.302098,0.464623,,,,,,,,,,,0.296855,-0.286728,0.460154,-0.678465,-0.323940,0.583236,-2.898758,0.303133,-0.680373,-1.429961,0.065842,0.699319,-0.021376,17.067877,-0.627631,-2.683460,0.051388
21.000000,-0.180954,-0.140327,-0.180374,,,,,,,,,,,-0.179569,-0.153353,-0.161866,-0.651014,-0.313317,0.595518,-2.899399,0.296405,-0.677726,-1.451980,0.246710,1.134442,-0.038284,17.300214,1.254001,1.386001,-0.044767
21.100000,-0.008187,-0.137058,-0.017279,,,,,,,,,,,-0.013020,-0.144909,-0.029221,-0.604050,-0.309042,0.588435,-2.864178,0.292744,-0.687411,-1.428815,0.067690,0.906085,0.002303,18.143575,-0.674148,-0.821676,0.391297
21.200000,0.071992,0.047627,0.026110,,,,,,,,,,,0.074685,0.039620,0.032081,-0.637163,-0.309226,0.591937,-2.900757,0.290498,-0.685273,-1.436052,0.138251,1.005498,0.004256,17.909212,0.086115,0.164408,0.365055
21.300000,0.014101,0.253193,-0.074189,,,,,,,,,,,0.012906,0.246372,-0.077475,-0.669972,-0.315831,0.588163,-2.917376,0.294119,-0.683955,-1.431777,0.139880,0.981624,-0.003764,17.980816,0.039724,-0.167064,0.267059
21.400000,0.058138,0.093611,-0.065054,,,,,,,,,,,0.062580,0.091712,-0.059993,-0.717152,-0.323286,0.584997,-2.947615,0.297360,-0.681792,-1.428952,0.170857,1.037344,-0.032518,17.887716,0.332717,0.528529,-0.062651
21.500000,0.032714,0.180152,-0.061831,151.184449,0.890000,14.894781,52.223929,120.594449,330.117165,4.348246,6.004007,20.941164,3.860000,0.030917,0.179725,-0.067830,-0.735558,-0.328736,0.579598,-2.953189,0.299797,-0.682725,-1.419168,0.097969,0.927753,-0.004237,18.298423,-0.520939,-0.633661,0.227258
21.600000,0.018652,0.149777,0.048121,,,,,,,,,,,0.022049,0.145577,0.046866,-0.766100,-0.332546,0.579392,-2.975372,0.301308,-0.680390,-1.421146,0.111491,1.059703,-0.057646,18.883182,-0.345585,0.704676,-0.310766
21.700000,0.139016,-0.149861,0.263506,,,,,,,,,,,0.138629,-0.143949,0.259310,-0.781040,-0.330291,0.585690,-2.995404,0.300672,-0.676344,-1.435778,0.030991,0.885146,-0.060738,19.579245,-1.007049,-1.012469,-0.421817
21.800000,0.076564,-0.121055,0.022257,,,,,,,,,,,0.077224,-0.126722,0.032424,-0.850405,-0.325639,0.596960,-3.082487,0.294529,-0.671451,-1.456550,0.061763,1.058270,-0.013644,17.148648,-0.523623,0.622526,-0.018553
21.900000,0.240411,-0.016566,0.003781,,,,,,,,,,,0.239640,-0.026951,-0.002533,-0.974407,-0.329361,0.598525,2.443277,0.287484,-0.671288,-1.451765,-0.007945,0.958031,0.049512,9.908789,-1.232339,-0.325171,0.354760
22.000000,0.182223,0.150906,-0.071316,,,,,,,,,,,0.182649,0.148760,-0.066952,-1.162402,-0.339186,0.600525,2.891675,0.282702,-0.666625,-1.447695,0.078339,1.036154,-0.042969,5.462282,-0.401286,0.376443,-0.687836
22.100000,0.338462,-0.141941,-0.022874,,,,,,,,,,,0.340553,-0.139665,-0.023694,-1.334165,-0.349307,0.601784,2.724284,0.275071,-0.663437,-1.433904,0.038818,0.988339,-0.001268,5.974593,-0.824479,0.068319,-0.597266
22.200000,0.222701,0.047338,-0.111055,,,,,,,,,,,0.222896,0.046194,-0.114161,-1.470794,-0.358545,0.603102,2.586529,0.264665,-0.661549,-1.414198,0.050027,0.999078,-0.044435,6.976301,-0.832874,-0.016241,-1.242755
22.300000,0.261768,-0.400309,-0.066143,,,,,,,,,,,0.264066,-0.399985,-0.057660,-1.583957,-0.361546,0.608697,2.453280,0.248416,-0.661068,-1.394159,0.098933,1.002235,-0.074686,7.781707,-0.308451,0.326903,-1.809470
22.400000,0.193882,-0.433497,-0.201506,,,,,,,,,,,0.193087,-0.435214,-0.213192,-1.592139,-0.358347,0.611349,2.405068,0.225278,-0.668608,-1.365550,0.074229,0.972383,-0.044423,8.496577,-0.799803,-0.189981,-1.790433
22.500000,0.260873,-0.607269,0.036940,151.276979,0.860000,11.839461,52.223971,120.686979,329.765598,4.385871,6.002865,20.941124,4.700000,0.262428,-0.611037,0.045239,-1.670742,-0.349534,0.623648,2.272165,0.198563,-0.670345,-1.346696,0.074931,0.989462,-0.043007,8.557031,-0.631673,0.210460,-2.055920
22.600000,0.132708,-0.611992,-0.114346,,,,,,,,,,,0.133420,-0.603261,-0.123059,-1.680579,-0.338772,0.631225,2.206744,0.172561,-0.675983,-1.326746,0.046257,0.973689,-0.061250,8.204994,-0.993649,-0.000170,-2.543858
22.700000,0.030726,-0.750029,-0.131747,,,,,,,,,,,0.039686,-0.766000,-0.122260,-1.694931,-0.319179,0.643225,2.117754,0.142665,-0.681113,-1.314766,0.107993,1.134122,-0.097327,8.055218,-0.213793,1.618693,-3.056465
22.800000,-0.074937,-0.925217,-0.090693,,,,,,,,,,,-0.077125,-0.912472,-0.100679,-1.614654,-0.292762,0.647994,2.114151,0.112942,-0.693871,-1.307577,-0.025949,0.954276,-0.106152,8.635546,-1.599575,-0.129964,-3.192110
22.900000,-0.008284,-0.927075,-0.152124,,,,,,,,,,,0.000885,-0.953216,-0.141117,-1.603948,-0.259281,0.661019,2.025948,0.079655,-0.699500,-1.310248,0.092979,1.132703,0.011133,9.194410,-0.156133,1.710182,-2.200520
23.000000,-0.234381,-0.593486,-0.092625,,,,,,,,,,,-0.229379,-0.600588,-0.107954,-1.501191,-0.232476,0.661118,2.057693,0.058018,-0.710921,-1.313484,0.004240,1.054958,-0.090468,10.072440,-1.181299,0.751954,-3.083643
23.100000,-0.110429,-0.615822,0.023093,,,,,,,,,,,-0.107487,-0.616854,0.036036,-1.492936,-0.205573,0.669668,2.003348,0.042119,-0.712326,-1.331296,0.019896,1.010939,0.018784,11.263832,-0.724157,0.506354,-1.956783
23.200000,-0.451301,-0.587318,-0.278777,,,,,,,,,,,-0.445656,-0.584102,-0.284983,-1.359988,-0.176949,0.667645,2.077261,0.030049,-0.722430,-1.348303,0.048473,1.124124,-0.170462,12.860337,-0.621656,1.375521,-3.557955
23.300000,-0.339866,-0.847949,0.005822,,,,,,,,,,,-0.342364,-0.858939,0.005955,-1.210839,-0.137419,0.668897,2.149702,0.016359,-0.730243,-1.378556,-0.041869,0.942148,-0.019138,15.197832,-1.412361,-0.330630,-1.702163
23.400000,-0.462070,-0.118352,-0.136192,,,,,,,,,,,-0.459279,-0.137198,-0.138627,-1.045183,-0.108624,0.668675,2.269014,0.012855,-0.735431,-1.405103,-0.001666,0.990263,0.059384,17.432327,-1.048404,-0.056196,-0.671629
23.500000,-0.513501,0.119567,-0.029455,152.031679,0.920000,12.454544,52.224010,121.441679,328.710909,4.489496,6.000000,20.941085,4.700000,-0.512244,0.116661,-0.030165,-0.772773,-0.093024,0.665430,2.545528,0.031470,-0.739923,-1.433313,0.051927,1.044203,-0.018130,19.777790,-0.584010,0.568682,-0.929304
23.600000,-0.504760,0.032405,0.049252,,,,,,,,,,,-0.501568,0.023484,0.045220,-0.397743,-0.079489,0.663705,2.934311,0.054755,-0.741704,-1.454149,0.047414,0.985835,-0.056300,22.830691,-0.658101,-0.081598,-0.800396
23.700000,-0.471437,0.047613,0.080722,,,,,,,,,,,-0.470000,0.042058,0.082453,0.039301,-0.064505,0.664507,-2.904133,0.075175,-0.740659,-1.461232,0.003226,0.973779,-0.005881,25.654094,-1.006410,-0.150696,0.194769
23.800000,-0.451739,0.159728,0.044759,,,,,,,,,,,-0.453336,0.166976,0.043120,0.426607,-0.053149,0.663332,-2.499050,0.098936,-0.739813,-1.444133,0.019627,0.909666,-0.024586,28.925501,-0.778101,-0.816977,0.482577
23.900000,-0.471191,0.085970,-0.010311,,,,,,,,,,,-0.471841,0.078386,-0.009395,0.676671,-0.039642,0.661837,-2.240672,0.118109,-0.739187,-1.414607,0.076611,1.040396,-0.036824,31.753193,-0.199822,0.473564,0.888466
24.000000,-0.323484,0.393227,0.075177,,,,,,,,,,,-0.325878,0.373472,0.072964,0.816234,-0.031592,0.659387,-2.082074,0.139239,-0.738077,-1.381767,0.003477,1.000874,0.117088,34.826647,-0.864720,0.222185,2.740985
24.100000,-0.264192,0.760442,0.084691,,,,,,,,,,,-0.256201,0.773847,0.080550,0.917150,-0.040106,0.659963,-1.926206,0.168848,-0.730917,-1.362433,0.005956,0.986566,-0.008141,36.513440,-0.621209,0.208977,1.733517
24.200000,-0.167436,0.752049,-0.094886,,,,,,,,,,,-0.157948,0.740439,-0.111098,0.950533,-0.055675,0.656474,-1.822145,0.201997,-0.724592,-1.342039,0.007307,1.113570,0.007558,37.644688,-0.478412,1.191331,2.255846
24.300000,-0.013262,0.974946,-0.148452,,,,,,,,,,,-0.003577,0.987656,-0.148710,0.904475,-0.080964,0.647274,-1.781242,0.236214,-0.720058,-1.327712,-0.048183,1.050182,0.070511,37.149978,-0.991613,0.607941,3.020870
24.400000,0.008750,1.113618,-0.130370,,,,,,,,,,,0.007173,1.077787,-0.125574,0.846295,-0.118339,0.636586,-1.726900,0.275141,-0.710461,-1.325046,0.005824,1.029408,-0.081322,35.815952,-0.350897,0.671921,1.716945
24.500000,0.038279,0.611296,-0.182409,151.826723,1.620000,22.074003,52.224043,121.236723,323.085905,4.893040,6.000000,20.941034,4.700000,0.050127,0.584686,-0.186622,0.788758,-0.148152,0.626628,-1.698074,0.303189,-0.702406,-1.326119,0.030878,1.038799,-0.109148,34.464284,0.081032,0.912905,1.150448
24.600000,0.120005,0.425977,-0.213316,,,,,,,,,,,0.118828,0.446083,-0.230154,0.706650,-0.168566,0.618168,-1.732528,0.314533,-0.700340,-1.333298,0.012534,1.044176,0.012881,33.676383,-0.333764,0.578821,2.368810
24.700000,0.060169,0.754012,-0.363577,,,,,,,,,,,0.064286,0.752044,-0.353236,0.565163,-0.195309,0.602922,-1.809796,0.329922,-0.699531,-1.335777,0.093933,1.011917,-0.046509,32.710771,0.355216,0.587157,1.824329
24.800000,0.113401,0.458363,-0.133095,,,,,,,,,,,0.118186,0.447490,-0.127185,0.456297,-0.221132,0.589502,-1.852490,0.346997,-0.695084,-1.337920,0.139302,1.036975,-0.081499,31.667127,0.716682,0.482056,1.360978
24.900000,0.219995,0.332016,-0.020588,,,,,,,,,,,0.226048,0.305454,-0.009089,0.397388,-0.240496,0.584628,-1.868790,0.355326,-0.688540,-1.351333,0.076698,0.985149,-0.054016,30.554457,0.155051,0.071355,1.493976
25.000000,0.242961,0.311011,-0.044730,,,,,,,,,,,0.245363,0.303272,-0.051000,0.363177,-0.256962,0.585018,-1.873056,0.358560,-0.680534,-1.373250,0.076131,1.069031,-0.001073,28.930880,0.192005,0.855538,1.838609
25.100000,0.312220,0.179587,-0.018358,,,,,,,,,,,0.304284,0.162650,-0.029018,0.302941,-0.275224,0.584671,-1.901999,0.360731,-0.672495,-1.397209,0.091428,1.082133,-0.049202,27.338384,0.238278,0.694188,1.237375
25.200000,0.240692,0.227673,-0.158117,,,,,,,,,,,0.256369,0.211319,-0.153787,0.182728,-0.291885,0.583238,-2.000606,0.358174,-0.668066,-1.418242,0.079425,1.067365,-0.025093,25.408325,0.270098,0.823415,0.971108
25.300000,0.300080,0.126245,-0.115513,,,,,,,,,,,0.300634,0.142140,-0.106914,0.003817,-0.307336,0.582040,-2.165274,0.352057,-0.665434,-1.436670,0.013010,1.001036,0.000945,23.859521,-0.516388,0.438034,1.119544
25.400000,0.259555,0.146938,0.048761,,,,,,,,,,,0.256443,0.118810,0.052222,-0.171160,-0.322512,0.583773,-2.323367,0.347838,-0.658925,-1.458537,0.038870,0.890129,-0.056082,22.287809,-0.485756,-1.116170,0.282626
25.500000,0.120836,0.084568,0.004707,148.294373,0.960000,19.213916,52.224026,117.704373,307.968721,5.371030,3.026708,20.940972,3.220000,0.110041,0.114090,-0.004365,-0.270725,-0.330487,0.587452,-2.413996,0.345717,-0.652804,-1.475831,0.119875,1.044177,-0.052229,21.719416,0.473527,0.434251,-0.018714
25.600000,0.082647,0.227341,0.106139,,,,,,,,,,,0.078174,0.222313,0.129679,-0.343595,-0.338906,0.586163,-2.467859,0.349155,-0.647789,-1.482415,0.087924,0.933209,0.003331,21.153609,0.223995,-0.457755,0.683167
25.700000,0.105570,-0.096446,0.257723,,,,,,,,,,,0.099128,-0.121979,0.237668,-0.239776,-0.339831,0.594134,-2.358508,0.351939,-0.638446,-1.505771,0.092232,0.928917,-0.070859,21.164403,0.397011,-0.990978,-0.264878
25.800000,0.026231,-0.051360,-0.040508,,,,,,,,,,,0.032145,-0.071121,-0.035032,-0.166501,-0.332221,0.601654,-2.308615,0.345196,-0.639117,-1.514681,0.046829,0.894772,0.004208,21.288173,0.161825,-0.851899,0.555413
25.900000,-0.049229,-0.030595,-0.110783,,,,,,,,,,,-0.054841,-0.018954,-0.138775,-0.195827,-0.324115,0.605603,-2.366210,0.335683,-0.644593,-1.513244,0.097876,1.188795,-0.012653,21.453457,0.490638,1.751748,0.190714
26.000000,0.006492,0.008656,0.026393,,,,,,,,,,,0.020388,-0.007066,0.063172,-0.266185,-0.320215,0.603349,-2.450822,0.330535,-0.651283,-1.501439,0.032092,0.831107,-0.024779,20.792538,-0.144464,-1.316610,0.184533
26.100000,0.051300,-0.024443,0.004913,,,,,,,,,,,0.056401,0.002420,-0.032479,-0.237988,-0.312019,0.612525,-2.450969,0.321011,-0.651455,-1.514267,0.101076,1.111362,0.054353,19.273392,0.515129,0.825571,0.682284
26.200000,0.121750,0.213979,-0.142565,,,,,,,,,,,0.123704,0.219383,-0.112196,-0.464861,-0.320874,0.606541,-2.663623,0.321039,-0.652735,-1.505239,0.062570,0.975168,-0.005803,16.270968,0.080378,-0.062623,0.456773
26.300000,0.105395,0.132660,0.050559,,,,,,,,,,,0.110506,0.096487,0.041689,-0.625153,-0.330302,0.605173,-2.803953,0.324199,-0.647730,-1.509947,0.085449,0.930594,0.003365,13.611466,0.222639,-0.781323,0.151983
26.400000,0.022154,0.212375,-0.091150,,,,,,,,,,,0.016393,0.218593,-0.103002,-0.753735,-0.336881,0.603860,-2.919585,0.325723,-0.644789,-1.510789,0.087802,1.053487,-0.007343,11.657620,0.331601,0.432422,0.036242
26.500000,-0.023813,0.266993,-0.087360,148.045655,1.140000,24.797572,52.224054,117.455655,321.328102,5.889586,3.000000,20.940954,3.220000,-0.030608,0.284606,-0.083463,-0.792225,-0.346541,0.595587,-2.932258,0.331992,-0.644161,-1.499067,0.082555,0.984378,-0.048477,11.262136,0.104358,0.021665,-0.274080
26.600000,-0.028100,-0.027568,0.044086,,,,,,,,,,,-0.025128,-0.026322,0.044104,-0.777691,-0.352033,0.591883,-2.898279,0.338521,-0.641208,-1.498447,0.058008,0.969872,-0.063316,12.033693,-0.118878,-0.212965,-0.438861
26.700000,-0.041814,-0.104476,-0.041936,,,,,,,,,,,-0.042138,-0.103969,-0.041224,-0.738555,-0.352526,0.590414,-2.854431,0.340917,-0.641023,-1.497345,0.010449,1.044164,-0.046300,13.689401,-0.614842,0.411818,-0.248651
26.800000,0.024901,-0.107006,0.015345,,,,,,,,,,,0.024500,-0.116961,0.015067,-0.725587,-0.350220,0.591117,-2.848465,0.338892,-0.642711,-1.496071,-0.043932,0.942787,0.027686,14.897243,-1.115132,-0.504291,0.486909
