seconds_elapsed,gyroscope_z,gyroscope_y,gyroscope_x,location_altitude,location_speedAccuracy,location_bearingAccuracy,location_latitude,location_altitudeAboveMeanSeaLevel,location_bearing,location_horizontalAccuracy,location_verticalAccuracy,location_longitude,location_speed,gyroscopeUncalibrated_z,gyroscopeUncalibrated_y,gyroscopeUncalibrated_x,orientation_yaw,orientation_qx,orientation_qz,orientation_roll,orientation_qw,orientation_qy,orientation_pitch,accelerometerUncalibrated_z,accelerometerUncalibrated_y,accelerometerUncalibrated_x,compass_magneticBearing,accelerometer_z,accelerometer_y,accelerometer_x
0.000000,0.005437,-0.034414,0.130118,148.641636,-1.000000,-1.000000,52.223706,118.051636,-1.000000,293.058453,2.536240,20.940881,-1.000000,0.015503,-0.021645,0.140021,-2.237637,0.173544,-0.852808,0.109872,0.431708,-0.237120,0.587496,-0.793972,-0.525146,0.117958,148.221599,0.367693,-0.066132,-0.001201
0.100000,-0.012254,-0.003020,-0.038712,,,,,,,,,,,-0.009246,-0.009347,-0.035064,-2.236478,0.173446,-0.852177,0.107296,0.431725,-0.239425,0.591766,-0.793309,-0.561060,0.078569,149.170581,0.310787,-0.032087,-0.097859
0.200000,-0.030216,0.028665,0.179458,,,,,,,,,,,-0.026760,0.020903,0.167282,-2.237834,0.172363,-0.853320,0.108322,0.431536,-0.236417,0.585061,-0.898540,-0.546938,0.082002,148.141348,-0.692584,0.052288,-0.086334
0.300000,-0.188228,0.080878,0.452574,,,,,,,,,,,-0.187038,0.079098,0.457216,-2.260621,0.188350,-0.849696,0.132628,0.423169,-0.251829,0.627816,-0.785968,-0.572350,0.130424,155.692642,0.167211,0.139649,0.232341
0.400000,-0.238665,0.227685,0.246155,148.641636,-1.000000,-1.000000,52.223791,118.051636,-1.000000,35.000000,2.333421,20.941482,-1.000000,-0.235728,0.223042,0.245762,-2.290997,0.202918,-0.848071,0.161735,0.412899,-0.262835,0.660308,-0.760268,-0.615839,0.082751,162.115954,0.193482,-0.025748,-0.430741
0.500000,-0.391659,0.066320,-0.254744,146.253540,0.710000,17.532653,52.223815,115.663540,327.304688,17.729367,16.000000,20.941212,0.000000,-0.388940,0.062925,-0.249182,-2.325875,0.216189,-0.850412,0.202249,0.403238,-0.259608,0.663545,-0.653961,-0.639529,0.106598,167.526390,1.122107,-0.218385,-0.495726
0.600000,-0.084944,-0.629892,0.217449,,,,,,,,,,,-0.091501,-0.625325,0.222045,-2.365894,0.211016,-0.859318,0.205718,0.386725,-0.259484,0.655160,-0.820508,-0.557562,0.187862,166.461020,-0.416801,0.496428,0.234649
0.700000,0.701155,-0.467200,-0.244926,,,,,,,,,,,0.702136,-0.478087,-0.246313,-2.330892,0.175589,-0.862424,0.115841,0.390147,-0.270113,0.646894,-0.822295,-0.569228,0.145934,152.172974,-0.289864,0.307339,0.514402
0.800000,0.205087,-0.121670,-0.006674,,,,,,,,,,,0.206914,-0.127106,-0.010835,-2.270432,0.155007,-0.857737,0.055465,0.408683,-0.270586,0.632133,-0.844717,-0.600375,0.049780,142.625005,-0.376218,-0.082179,0.046700
0.900000,0.024226,-0.085811,0.093014,,,,,,,,,,,0.027346,-0.089532,0.092940,-2.251516,0.149968,-0.854376,0.034137,0.413437,-0.276792,0.639727,-0.799342,-0.609924,0.002495,141.083980,0.023906,-0.123027,-0.244800
1.000000,0.000252,-0.143481,-0.004305,,,,,,,,,,,0.003937,-0.148358,-0.004697,-2.248584,0.145313,-0.854077,0.019837,0.412374,-0.281740,0.644886,-0.780139,-0.605351,0.011288,139.930793,0.184693,-0.040162,-0.041655
1.100000,-0.108305,-0.224053,0.067076,,,,,,,,,,,-0.105982,-0.233367,0.068712,-2.256260,0.136611,-0.856143,-0.001154,0.405641,-0.289464,0.651646,-0.785843,-0.592397,-0.003564,137.807046,0.088117,0.140102,-0.026783
1.200000,-0.073087,0.031196,-0.030748,148.478699,0.510000,17.532653,52.223814,117.888699,327.304688,18.452963,4.000000,20.941210,0.000000,-0.073053,0.024991,-0.029552,-2.273770,0.137007,-0.859101,0.005243,0.399001,-0.289773,0.652558,-0.787616,-0.595192,0.022894,137.910022,0.068925,0.117569,0.186535
1.300000,-0.011198,0.000076,-0.031623,,,,,,,,,,,-0.008585,0.000833,-0.036821,-2.277262,0.138783,-0.860233,0.013786,0.399182,-0.285279,0.645523,-0.801604,-0.603397,0.009479,137.998399,-0.036316,-0.019711,-0.022464
1.400000,0.006633,-0.205392,0.116135,,,,,,,,,,,0.008019,-0.209793,0.114235,-2.280909,0.135285,-0.860675,0.003843,0.395750,-0.290347,0.652124,-0.791551,-0.606686,0.004706,137.585604,0.032003,-0.000980,0.013944
1.500000,0.002274,0.066692,0.077270,,,,,,,,,,,0.001525,0.060844,0.078149,-2.280859,0.133727,-0.859573,-0.005097,0.393687,-0.297079,0.663679,-0.793114,-0.608345,-0.013579,137.656804,-0.054837,0.088637,-0.081014
1.600000,-0.036140,-0.117055,0.241413,,,,,,,,,,,-0.033008,-0.120591,0.240749,-2.283809,0.134529,-0.858157,-0.009166,0.390737,-0.304591,0.678874,-0.789442,-0.620840,0.001495,138.781753,-0.100722,0.052048,0.072976
1.700000,-0.067200,-0.087201,0.088609,,,,,,,,,,,-0.064788,-0.088507,0.088347,-2.290526,0.135139,-0.857230,-0.012770,0.386131,-0.312717,0.695158,-0.736539,-0.629347,-0.026509,140.043154,0.301578,0.109499,-0.162299
1.800000,-0.051030,-0.103849,0.352429,,,,,,,,,,,-0.048108,-0.111382,0.350186,-2.297482,0.134132,-0.856075,-0.021466,0.380292,-0.323253,0.714840,-0.798425,-0.632498,-0.039153,140.782997,-0.417972,0.215559,-0.228609
1.900000,-0.015140,0.159642,0.211191,,,,,,,,,,,-0.014598,0.147351,0.212757,-2.303538,0.139901,-0.852216,-0.019192,0.375764,-0.336064,0.744973,-0.747118,-0.679701,-0.014145,142.755287,-0.118389,-0.022747,-0.003906
2.000000,0.057416,0.291756,0.018879,,,,,,,,,,,0.056865,0.289271,0.020273,-2.303337,0.154813,-0.847931,0.010269,0.379854,-0.335759,0.757398,-0.702043,-0.678336,0.028546,146.883779,0.235567,0.088059,0.204259
2.100000,-0.060088,0.093681,0.015582,,,,,,,,,,,-0.055936,0.091610,0.014196,-2.299226,0.162268,-0.845632,0.025413,0.383996,-0.333345,0.759276,-0.723120,-0.689696,-0.000803,148.954022,0.012714,-0.011217,-0.182654
2.200000,-0.035773,0.050257,0.053408,148.399658,0.070000,17.532653,52.223813,117.809658,327.304688,13.300332,4.000000,20.941204,0.000000,-0.036830,0.047035,0.053621,-2.309645,0.168032,-0.845476,0.040957,0.381841,-0.333359,0.764280,-0.711728,-0.679346,0.036507,150.344424,0.095682,0.129484,0.069635
2.300000,0.016055,0.092135,-0.064695,,,,,,,,,,,0.019368,0.086423,-0.063732,-2.307929,0.168898,-0.845296,0.043164,0.383056,-0.331975,0.762369,-0.720450,-0.680855,0.023030,150.806227,0.021331,0.093954,-0.077350
2.400000,0.017355,-0.128180,-0.029686,,,,,,,,,,,0.015837,-0.132665,-0.029636,-2.308001,0.167998,-0.846145,0.043165,0.383348,-0.329929,0.757545,-0.700026,-0.666859,0.036703,150.693775,0.245392,0.201109,0.056276
2.500000,0.102240,-0.220473,-0.184881,,,,,,,,,,,0.103679,-0.231973,-0.179326,-2.296085,0.155620,-0.847778,0.013253,0.384077,-0.330914,0.748627,-0.741254,-0.677614,0.022241,147.483053,-0.079928,0.027157,0.118765
2.600000,-0.031332,-0.165610,-0.132529,,,,,,,,,,,-0.029327,-0.170010,-0.135382,-2.293521,0.143575,-0.852218,-0.006745,0.383398,-0.325712,0.727854,-0.761752,-0.679701,-0.026695,143.320692,-0.148558,-0.143940,-0.214989
2.700000,0.019119,0.134250,-0.011993,,,,,,,,,,,0.018195,0.127669,-0.014769,-2.294993,0.141709,-0.853528,-0.007956,0.383004,-0.323592,0.722076,-0.785921,-0.659540,0.003448,142.458077,-0.351284,0.019457,0.102041
2.800000,-0.004257,0.163913,-0.003827,,,,,,,,,,,-0.004088,0.160253,-0.004286,-2.291620,0.148823,-0.851866,0.007834,0.387040,-0.319949,0.721233,-0.755006,-0.655086,0.014885,144.153774,-0.040172,0.057632,0.094727
2.900000,0.039752,0.120329,-0.062050,,,,,,,,,,,0.041358,0.118633,-0.062985,-2.285074,0.153929,-0.850084,0.018148,0.391585,-0.316728,0.719553,-0.731781,-0.657011,0.005489,145.169234,0.191867,0.022242,-0.072871
3.000000,0.007322,0.111196,-0.038287,,,,,,,,,,,0.009584,0.107583,-0.037197,-2.280627,0.156652,-0.849081,0.023766,0.394487,-0.314465,0.717643,-0.742076,-0.659541,0.008055,145.891080,0.111368,-0.020724,-0.093802
3.100000,0.035553,-0.033961,-0.066853,,,,,,,,,,,0.036567,-0.036925,-0.065321,-2.280012,0.158127,-0.849368,0.029423,0.395994,-0.311052,0.712375,-0.734354,-0.649738,0.018753,146.286403,0.222411,0.037487,-0.036197
3.200000,0.102098,-0.345762,0.025572,148.351440,0.070000,17.532653,52.223814,117.761440,327.304688,10.654308,4.000000,20.941199,0.000000,0.104840,-0.352759,0.029378,-2.270675,0.145988,-0.850148,-0.001842,0.395164,-0.315823,0.710723,-0.719168,-0.645898,-0.004424,143.003409,0.392368,0.058887,-0.040478
3.300000,0.375397,-0.088982,-0.212563,,,,,,,,,,,0.361975,-0.097657,-0.209985,-2.254345,0.132540,-0.851149,-0.033139,0.398228,-0.315218,0.697300,-0.704755,-0.575372,0.008812,138.831659,0.612453,0.676999,0.347992
3.400000,1.624302,-1.390585,-0.381038,,,,,,,,,,,1.613175,-1.363254,-0.394460,-2.135346,0.085931,-0.839292,-0.161655,0.433069,-0.315568,0.647858,-0.477029,-0.284857,-0.060295,125.657258,3.038618,3.174643,0.646128
3.500000,3.202410,-4.028227,-0.548196,,,,,,,,,,,3.171765,-4.009915,-0.554136,-1.901233,-0.072584,-0.792185,-0.567929,0.478062,-0.364847,0.532521,-0.284592,0.158012,-0.355153,98.172860,4.193124,6.578382,1.003807
3.600000,5.345657,-2.803337,-0.038843,,,,,,,,,,,5.332440,-2.815662,-0.042007,-1.623673,-0.299643,-0.655129,-1.026951,0.563459,-0.395513,0.180080,-0.350644,0.632492,-0.779597,72.051829,1.486786,8.012007,0.454817
3.700000,5.748830,-2.782902,0.878406,,,,,,,,,,,5.781773,-2.819861,0.876487,-1.375792,-0.484275,-0.411524,-1.307033,0.667614,-0.376035,-0.348917,-0.446552,0.946483,-1.627847,46.106702,-2.015633,5.885279,-7.446941
3.800000,0.470727,-0.190309,0.207775,,,,,,,,,,,0.544425,-0.215015,0.249188,-1.152881,-0.532989,-0.233888,-1.353499,0.728259,-0.360916,-0.653148,0.016029,-0.112198,-2.609183,30.622595,1.894759,-7.102609,-17.872647
3.900000,-3.244167,-2.330063,0.539503,,,,,,,,,,,-3.248233,-2.325754,0.514215,-1.239724,-0.525193,-0.282825,-1.496875,0.670797,-0.435753,-0.478608,-0.101714,0.134071,-1.089183,39.456218,-0.422547,-3.105477,-1.886802
4.000000,-1.190953,-1.055452,1.394542,,,,,,,,,,,-1.201272,-1.045106,1.381672,-1.139697,-0.464713,-0.286714,-1.625243,0.625616,-0.556285,-0.266281,0.111768,0.599107,-0.633290,54.145491,0.614556,3.270522,3.157403
4.100000,0.383297,0.887972,0.073141,,,,,,,,,,,0.365053,0.854644,0.089653,-1.072495,-0.432190,-0.282215,-1.628035,0.626217,-0.583877,-0.213635,0.061577,0.347279,-1.077547,58.289151,0.109417,1.365216,-0.967691
4.200000,2.465009,1.362839,-0.411070,148.098022,0.800000,80.332594,52.223814,117.508022,123.398438,6.385576,4.000000,20.941199,0.000000,2.449121,1.350135,-0.391041,-1.087536,-0.455661,-0.273581,-1.477514,0.683717,-0.497998,-0.359109,-0.286295,0.737437,-0.981981,49.239839,-2.052640,3.770763,-0.626402
4.300000,1.237842,0.272037,0.206162,,,,,,,,,,,1.251194,0.250858,0.168432,-1.106962,-0.507158,-0.228569,-1.436855,0.710015,-0.431226,-0.550419,-0.127193,0.345413,-0.977834,38.360509,-0.098285,-1.797833,-1.272708
4.400000,-1.258849,-0.639325,0.090373,,,,,,,,,,,-1.207915,-0.615597,0.096220,-1.046841,-0.498225,-0.205943,-1.405228,0.725366,-0.427511,-0.578650,0.115636,-0.039264,-1.056291,36.305939,2.474524,-5.732151,-2.224369
4.500000,-2.614069,-1.805511,0.667991,,,,,,,,,,,-2.622410,-1.818756,0.651219,-1.058422,-0.456789,-0.246805,-1.569750,0.662105,-0.538133,-0.347502,-0.143677,0.545863,-0.708746,50.241689,-1.394683,2.053323,2.213660
4.600000,-1.304792,-0.428552,-0.323034,,,,,,,,,,,-1.305920,-0.433664,-0.302746,-1.020844,-0.400957,-0.284610,-1.632471,0.623095,-0.607966,-0.154214,0.053751,0.041083,-0.983110,62.564745,-0.114371,-1.157128,0.013852
4.700000,-1.093461,0.152693,0.282136,,,,,,,,,,,-1.108680,0.138753,0.271252,-1.040761,-0.371885,-0.329980,-1.649833,0.592949,-0.633232,-0.023085,0.067973,0.165137,-1.127550,69.952386,-0.094056,1.421393,-1.281413
4.800000,-0.396501,0.245367,-0.419208,,,,,,,,,,,-0.400669,0.229292,-0.419474,-1.033104,-0.349770,-0.348826,-1.633681,0.588882,-0.639558,0.034213,0.019243,-0.216284,-0.994312,73.291941,-0.450166,-1.823990,0.055058
4.900000,-0.565477,0.298281,1.597766,,,,,,,,,,,-0.560813,0.302237,1.588187,-0.984351,-0.317015,-0.351212,-1.600520,0.601408,-0.643269,0.070701,-0.045753,0.085196,-0.978662,75.651996,-0.710892,1.590313,0.170120
5.000000,-0.207839,0.072922,0.922797,,,,,,,,,,,-0.215658,0.072682,0.932693,-0.853878,-0.259514,-0.326078,-1.599770,0.615823,-0.668521,0.116622,0.067308,0.016682,-1.033090,80.638322,0.391724,1.266643,-0.393077
5.100000,0.321129,-0.026854,0.358935,,,,,,,,,,,0.314571,-0.033102,0.360143,-0.806188,-0.247866,-0.307302,-1.609168,0.621660,-0.676485,0.107800,0.066772,-0.101892,-0.949593,81.438182,0.281792,0.056844,0.448459
5.200000,0.588179,-0.043969,0.204633,147.565613,0.800000,80.332594,52.223803,116.975613,123.398438,5.460420,4.000000,20.941198,0.000000,0.586787,-0.047613,0.212388,-0.782373,-0.256044,-0.283663,-1.615957,0.630047,-0.675982,0.060902,0.087892,0.015619,-1.023218,79.383175,0.429970,0.746543,-0.275096
5.300000,1.204527,0.040175,-0.241197,,,,,,,,,,,1.188878,0.031397,-0.238241,-0.796311,-0.287649,-0.260071,-1.617186,0.639616,-0.663472,-0.022887,0.064674,0.068556,-0.940508,75.110466,0.182656,0.471821,0.599139
5.400000,2.531757,0.225789,-0.535059,,,,,,,,,,,2.534401,0.215366,-0.535902,-0.852857,-0.365559,-0.212183,-1.614055,0.658392,-0.621429,-0.219796,0.021138,0.195996,-0.845682,63.974819,-0.210273,-0.196138,1.184203
5.500000,1.956430,0.333180,-0.346442,,,,,,,,,,,1.955384,0.329021,-0.345832,-0.906078,-0.441555,-0.158920,-1.596778,0.680214,-0.562308,-0.436064,0.044914,0.520563,-1.010606,50.754362,0.204266,1.005377,-1.009955
5.600000,2.492244,0.558618,-0.462872,,,,,,,,,,,2.490402,0.554456,-0.464685,-0.961409,-0.510909,-0.106075,-1.579861,0.696180,-0.491416,-0.653661,-0.009760,0.714607,-0.791112,37.778712,-0.165621,1.080846,-0.031259
5.700000,0.641678,0.221251,-0.149428,,,,,,,,,,,0.665204,0.217260,-0.154024,-0.996075,-0.560893,-0.057066,-1.568095,0.705428,-0.429447,-0.836632,0.030608,0.726567,-1.160399,26.815640,0.293291,-0.129041,-4.736493
5.800000,1.465662,0.283704,-0.003905,,,,,,,,,,,1.441238,0.283322,-0.000365,-0.993784,-0.575115,-0.038466,-1.541727,0.712146,-0.400209,-0.908674,-0.032748,0.842783,-0.677994,23.130472,-0.138716,0.525185,-0.622785
5.900000,1.323795,-0.183652,-0.286655,,,,,,,,,,,1.349129,-0.185419,-0.288699,-1.019185,-0.612684,0.017398,-1.559334,0.708901,-0.348481,-1.078065,-0.031412,0.725281,-0.437099,13.747166,-0.251181,-1.510888,0.389316
6.000000,1.091844,0.070162,0.597909,,,,,,,,,,,1.062128,0.066138,0.580698,-1.016486,-0.625817,0.045051,-1.561165,0.706434,-0.327026,-1.152452,-0.065828,0.893546,-0.424654,9.381071,-0.598794,-0.150883,-0.177376
6.100000,1.227205,-0.645991,0.161864,,,,,,,,,,,1.259168,-0.646204,0.173849,-0.785905,-0.627121,0.126710,-1.387569,0.711935,-0.288768,-1.311306,0.015977,0.871004,-0.297171,73.436496,0.604065,-0.971165,-0.485628
6.200000,0.864846,0.387559,-0.190488,147.658630,0.160000,80.332594,52.223800,117.068630,123.398438,5.753725,4.000000,20.941197,0.000000,0.861563,0.371037,-0.181797,-0.723887,-0.635569,0.163791,-1.361104,0.701525,-0.277232,-1.384850,-0.041704,1.040430,-0.205486,357.786970,-0.041113,0.576002,-0.203926
6.300000,0.582419,-0.125920,-0.253508,,,,,,,,,,,0.581817,-0.109318,-0.261323,-0.798136,-0.657513,0.179910,-1.406105,0.690107,-0.242850,-1.470301,-0.003123,0.710481,-0.129991,353.089882,0.133315,-2.815990,-0.296904
6.400000,2.042082,-1.183946,0.526733,,,,,,,,,,,2.058259,-1.206653,0.529141,0.928748,-0.652349,0.269156,0.202225,0.667823,-0.232662,-1.489515,-0.069887,1.034450,0.106224,347.654399,-0.297385,0.490306,0.618467
6.500000,-0.132504,-0.117979,-0.024053,,,,,,,,,,,-0.119811,-0.120512,-0.021443,1.906586,-0.650402,0.318216,1.133078,0.655747,-0.213733,-1.422699,-0.083775,1.200615,0.083963,342.464621,-0.186597,2.008815,-0.459675
6.600000,-0.081834,0.089535,-0.085723,,,,,,,,,,,-0.093739,0.087733,-0.087059,1.912175,-0.649987,0.312384,1.127228,0.654335,-0.227539,-1.450566,-0.031746,1.056866,0.162677,343.841344,0.195599,0.629659,0.581182
6.700000,0.215723,-0.756376,-0.603457,,,,,,,,,,,0.222259,-0.748483,-0.591623,2.166632,-0.654325,0.328931,1.338628,0.637511,-0.238697,-1.439702,0.086143,1.125584,0.201563,343.478279,1.147040,1.318818,0.708306
6.800000,0.052302,-0.997471,-1.195117,,,,,,,,,,,0.053755,-1.007020,-1.198531,1.662466,-0.669445,0.353051,1.976206,0.586571,-0.287235,-1.417881,0.175479,0.951559,-0.035428,345.033712,1.112489,-0.400058,-1.695318
6.900000,0.021946,-0.457642,-0.698837,,,,,,,,,,,0.021787,-0.462495,-0.703589,-2.908726,-0.680724,0.366702,2.342603,0.542984,-0.327336,-1.367426,0.162305,0.898187,0.085249,346.369538,0.211954,-0.785188,-0.545567
7.000000,0.117873,-0.803285,-0.368885,,,,,,,,,,,0.117307,-0.805057,-0.371943,-2.752872,-0.683003,0.382528,2.424895,0.511374,-0.354195,-1.324151,0.144044,0.891895,0.202965,346.636607,-0.396531,-0.752964,0.423940
7.100000,0.118818,-0.848562,-0.049728,,,,,,,,,,,0.124501,-0.852458,-0.053840,-2.724689,-0.672183,0.414197,2.355131,0.482672,-0.378733,-1.297233,0.170300,0.894794,0.189734,346.832760,-0.187202,-0.685500,-0.020742
7.200000,-0.310115,-0.872846,0.298998,147.672852,0.070000,80.332594,52.223798,117.082851,123.398438,5.682553,4.000000,20.941198,0.000000,-0.303584,-0.876047,0.293935,-2.728338,-0.646820,0.445899,2.254102,0.469116,-0.403116,-1.311531,0.149234,0.888736,0.199765,348.050391,-0.129321,-0.746613,0.017647
7.300000,-0.511988,-0.843473,0.266465,,,,,,,,,,,-0.512676,-0.841085,0.270447,-2.718789,-0.606193,0.472118,2.165729,0.470540,-0.433594,-1.371028,0.095796,1.012408,0.359955,351.470014,-0.161125,0.352454,1.930903
7.400000,-0.491061,-1.481040,0.031319,,,,,,,,,,,-0.487362,-1.496185,0.031748,-2.595710,-0.561601,0.501092,2.154487,0.453737,-0.476586,-1.414067,0.041374,1.079042,0.028317,355.702958,-0.406379,0.856524,-1.070078
7.500000,-0.446355,-0.614650,-0.081225,,,,,,,,,,,-0.447925,-0.627339,-0.079360,-2.366205,-0.520492,0.519664,2.271152,0.439633,-0.515351,-1.455803,0.135362,1.050441,-0.051155,144.283839,0.578481,0.563725,-1.335536
7.600000,-0.291875,-0.379736,0.135691,,,,,,,,,,,-0.291314,-0.380443,0.132386,-2.130142,-0.497638,0.525478,2.454071,0.435304,-0.535422,-1.481426,0.025365,1.018057,-0.068195,2.874543,-0.437823,0.221093,-1.225770
7.700000,-0.257464,-0.584466,0.413373,,,,,,,,,,,-0.256603,-0.590298,0.412074,-2.095906,-0.468371,0.540781,2.430760,0.434252,-0.547232,-1.521591,-0.024220,1.005391,0.023073,5.175096,-0.607410,0.065010,-0.078228
7.800000,-0.179974,-0.317058,0.142278,,,,,,,,,,,-0.180469,-0.323606,0.144737,-2.247927,-0.441673,0.555902,2.226464,0.432501,-0.555701,-1.557814,0.023975,0.991618,-0.013551,7.277122,0.162093,-0.079946,-0.243131
7.900000,-0.097589,-0.093320,-0.027537,,,,,,,,,,,-0.096805,-0.101937,-0.026799,-0.709264,-0.428857,0.560499,-1.290122,0.429307,-0.563570,-1.565961,0.068134,0.998647,-0.048033,8.634516,0.638312,-0.006862,-0.447511
8.000000,-0.058487,0.121286,0.050191,,,,,,,,,,,-0.057014,0.115731,0.051174,-0.095332,-0.425660,0.559253,-1.936693,0.430314,-0.566458,-1.558437,0.071513,1.003912,-0.067873,9.131757,0.661652,0.038032,-0.544737
8.100000,0.010056,-0.019193,-0.078100,,,,,,,,,,,0.010595,-0.023797,-0.078527,-0.159253,-0.425622,0.557092,-1.998897,0.431305,-0.567862,-1.553363,0.057285,0.977882,-0.041725,9.091228,0.496412,-0.212743,-0.265022
8.200000,0.003166,-0.169669,-0.052609,147.805054,0.120000,80.332594,52.223801,117.215054,123.398438,5.584626,4.000000,20.941198,0.000000,0.003481,-0.170329,-0.052399,-0.435674,-0.424015,0.557660,-2.285846,0.426962,-0.571768,-1.550378,0.061861,1.001923,-0.047314,9.200509,0.473854,0.019098,-0.300192
8.300000,0.078486,-0.307392,-0.058241,,,,,,,,,,,0.080249,-0.313100,-0.058021,-0.811856,-0.418159,0.563651,-2.692796,0.415330,-0.578718,-1.548910,0.039870,0.985640,-0.049559,9.350027,0.195591,-0.138096,-0.401506
8.400000,0.049758,-0.438723,0.007856,,,,,,,,,,,0.052046,-0.437619,0.008350,-1.053925,-0.409617,0.571166,-2.972256,0.402353,-0.586562,-1.546684,-0.000616,0.994479,-0.033771,9.758270,-0.247819,-0.054708,-0.313285
8.500000,0.078188,-0.383416,0.087937,,,,,,,,,,,0.083711,-0.387965,0.094239,-1.336478,-0.398270,0.582178,1.729467,0.389072,-0.592482,-1.551067,0.028262,1.005208,0.011159,10.023689,0.051810,0.055819,0.091948
8.600000,0.053184,-0.348679,0.075074,,,,,,,,,,,0.045899,-0.347812,0.071104,-2.017306,-0.387092,0.594375,2.265586,0.376805,-0.595704,-1.555879,0.044022,0.996358,-0.000829,10.335402,0.386376,-0.026113,-0.119162
8.700000,-0.004516,-0.208877,-0.011762,,,,,,,,,,,-0.000222,-0.205285,-0.016691,-2.252576,-0.377280,0.601750,1.998132,0.367374,-0.600485,-1.556654,0.031880,1.012468,0.022333,10.644574,0.257360,0.108870,0.088415
8.800000,0.054258,-0.297660,0.078682,,,,,,,,,,,0.052650,-0.302180,0.086391,-2.361435,-0.369855,0.607631,1.862157,0.358418,-0.604568,-1.553822,0.015724,1.007158,-0.034447,10.813272,0.049005,0.050114,-0.485401
8.900000,-0.012502,-0.203436,0.040780,,,,,,,,,,,-0.015871,-0.195443,0.036153,-2.804508,-0.360882,0.615325,1.391768,0.350767,-0.606704,-1.551967,-0.033464,0.987506,0.044505,11.191492,-0.238698,-0.120171,0.148263
9.000000,0.021854,0.040324,0.050221,,,,,,,,,,,0.024562,0.052232,0.056358,-3.002938,-0.356892,0.618251,1.183140,0.348518,-0.607394,-1.551385,-0.022656,1.002744,0.041980,11.506118,-0.133381,0.047443,0.338027
9.100000,-0.040529,0.238265,0.091116,,,,,,,,,,,-0.040543,0.244097,0.083798,2.341254,-0.359144,0.618766,0.883936,0.353263,-0.602774,-1.546518,-0.016371,1.000966,-0.003044,11.293221,-0.027250,0.016495,-0.242062
9.200000,-0.018910,0.202417,-0.026239,147.796448,0.090000,80.332594,52.223803,117.206448,123.398438,5.518655,4.000000,20.941200,0.000000,-0.013692,0.187510,-0.033803,2.735484,-0.364081,0.614965,0.672114,0.361886,-0.598576,-1.547409,-0.015401,0.999182,0.000050,10.994819,0.039586,0.001987,-0.101785
9.300000,0.008905,0.079810,-0.022318,,,,,,,,,,,0.009439,0.066587,-0.018165,2.844196,-0.368450,0.611460,0.793083,0.364955,-0.597635,-1.550623,-0.018233,1.002130,-0.031572,10.765174,-0.050012,0.007458,-0.452955
9.400000,-0.012818,0.144330,-0.011280,,,,,,,,,,,-0.011839,0.150373,-0.009179,2.747459,-0.370038,0.609220,0.704170,0.368100,-0.597009,-1.553301,-0.016736,0.997795,0.020233,10.648925,-0.045780,-0.008983,0.048759
9.500000,-0.014538,0.202743,-0.046209,,,,,,,,,,,-0.015150,0.197972,-0.051192,2.769391,-0.375662,0.604872,0.744819,0.373737,-0.594406,-1.555721,0.005783,1.004179,0.014317,10.284307,0.170934,0.032635,0.052589
9.600000,0.002544,0.158910,-0.030439,,,,,,,,,,,0.004246,0.153075,-0.026249,1.179779,-0.382284,0.599610,1.059200,0.378504,-0.592499,-1.559359,-0.018553,0.999281,-0.008603,9.995435,-0.111634,-0.005463,-0.161073
9.700000,-0.010650,0.190225,-0.030842,,,,,,,,,,,-0.009653,0.189110,-0.030888,-1.859961,-0.387291,0.595632,1.177834,0.383478,-0.590056,-1.561242,0.004545,1.006460,0.010859,9.718890,0.062372,0.069825,-0.004525
9.800000,-0.037832,0.289279,-0.076708,,,,,,,,,,,-0.036506,0.284088,-0.077758,-2.376769,-0.394655,0.588910,1.940834,0.389795,-0.587767,-1.563263,-0.005638,0.997691,0.026288,9.333255,-0.078054,-0.024875,0.194672
9.900000,-0.009407,0.282480,-0.057727,,,,,,,,,,,-0.008158,0.277740,-0.058097,-1.690838,-0.404038,0.580759,2.656371,0.397740,-0.584172,-1.560624,0.004901,0.996645,-0.007872,8.962543,-0.044758,-0.034586,-0.128449
10.000000,0.019999,0.284064,0.029590,,,,,,,,,,,0.020512,0.280454,0.029432,-1.567804,-0.413177,0.573786,2.809824,0.406223,-0.578806,-1.558627,0.006575,0.989566,-0.019588,8.342678,-0.042664,-0.104258,-0.238333
10.100000,-0.016942,0.148926,0.063336,,,,,,,,,,,-0.014930,0.146026,0.064209,-1.891210,-0.418669,0.570829,2.509005,0.413713,-0.572454,-1.563413,0.035457,1.004115,-0.026555,7.969940,0.298125,0.042263,-0.300425
10.200000,0.002286,0.073117,0.027891,147.815308,0.090000,80.332594,52.223804,117.225307,123.398438,5.352946,4.000000,20.941204,0.000000,0.003818,0.067470,0.027108,-1.937440,-0.420548,0.569088,2.473221,0.417793,-0.569847,-1.566760,0.027657,1.001988,-0.010498,7.781693,0.237672,0.020671,-0.127860
10.300000,0.010432,0.115388,0.041340,,,,,,,,,,,0.012404,0.109632,0.041242,-1.566492,-0.422830,0.567896,1.597703,0.421296,-0.566759,-1.567894,0.031516,1.003517,-0.020480,7.703660,0.305280,0.037391,-0.226476
10.400000,0.004527,0.066561,-0.011042,,,,,,,,,,,0.006273,0.063640,-0.010854,-2.601915,-0.426454,0.564916,1.831659,0.424881,-0.564342,-1.568324,0.030482,0.994762,-0.026747,7.426193,0.296199,-0.049021,-0.290334
10.500000,-0.019694,-0.053874,-0.099209,,,,,,,,,,,-0.017630,-0.058970,-0.097986,-1.422587,-0.427146,0.562733,-0.130610,0.424190,-0.566513,-1.563855,0.030972,1.014151,-0.015916,7.498542,0.226778,0.132110,-0.149872
10.600000,0.026285,0.016305,-0.036278,,,,,,,,,,,0.027678,0.012025,-0.038367,-1.236924,-0.429006,0.559744,-1.829429,0.422572,-0.569274,-1.554504,-0.001160,0.984235,-0.010533,7.556346,-0.169068,-0.152340,-0.105634
10.700000,0.017455,0.007847,0.078006,,,,,,,,,,,0.018901,0.002050,0.078229,-1.426153,-0.429080,0.561185,3.008489,0.422848,-0.567591,-1.558146,-0.013678,1.001599,0.008859,7.475824,-0.257363,0.015612,0.087340
10.800000,-0.002116,0.021185,-0.084262,,,,,,,,,,,-0.001302,0.021891,-0.081139,-1.441526,-0.431008,0.559905,3.001489,0.425642,-0.565300,-1.560018,0.051440,1.002171,-0.019849,7.335676,0.413489,0.020715,-0.234506
10.900000,-0.050415,-0.585821,-0.071925,,,,,,,,,,,-0.046084,-0.585893,-0.073367,-1.413677,-0.425525,0.563130,2.371797,0.414523,-0.574379,-1.548468,0.084706,0.996321,-0.108635,7.608039,0.611424,-0.026444,-1.076970
11.000000,-0.157061,-0.446426,-0.086871,,,,,,,,,,,-0.155136,-0.459759,-0.085439,-0.959266,-0.406161,0.571341,-2.888799,0.399282,-0.590871,-1.541344,0.029320,1.006737,-0.000476,9.386624,0.004324,0.069918,0.069328
11.100000,-0.345785,-0.027920,-0.030640,,,,,,,,,,,-0.342132,-0.038377,-0.036860,-0.571933,-0.396526,0.567089,-2.519779,0.398088,-0.602223,-1.520577,-0.018622,0.950871,-0.047063,10.817345,-0.589538,-0.487347,-0.177396
11.200000,0.169565,-0.119712,0.210503,147.726318,0.060000,80.332594,52.223806,117.136318,123.398438,5.058567,4.000000,20.941204,0.000000,0.165383,-0.118665,0.212607,-0.129396,-0.389283,0.567930,-2.076262,0.405877,-0.600955,-1.518493,0.042094,1.019130,0.069453,11.874733,0.177002,0.221940,1.102507
11.300000,0.042090,-0.248445,0.372287,,,,,,,,,,,0.046520,-0.253371,0.372360,0.502521,-0.381224,0.584604,-1.468961,0.399665,-0.594244,-1.539450,0.034381,1.007922,-0.145432,11.630865,0.365646,0.080525,-1.110243
11.400000,-0.077156,0.072209,-0.052239,,,,,,,,,,,-0.073956,0.058172,-0.046319,1.058808,-0.372415,0.593220,-0.927887,0.399443,-0.591471,-1.532353,-0.093150,1.031575,0.116371,11.953523,-0.709309,0.316878,1.463861
11.500000,0.059454,0.702785,-0.085712,,,,,,,,,,,0.058439,0.696022,-0.090495,0.670308,-0.386495,0.580072,-1.273024,0.410843,-0.587572,-1.534681,-0.160722,0.989969,0.036797,11.362026,-1.459501,-0.097152,0.655183
11.600000,0.084676,0.482842,0.159113,,,,,,,,,,,0.086889,0.484526,0.161673,1.036300,-0.406029,0.571944,-0.842814,0.428433,-0.569568,-1.538416,0.113315,0.971648,-0.145163,9.516495,1.357343,-0.266933,-1.168989
11.700000,-0.016417,-0.010771,-0.062894,,,,,,,,,,,-0.012261,-0.006990,-0.062160,1.207020,-0.414135,0.568417,-0.646663,0.434808,-0.562436,-1.540331,0.178088,1.014661,-0.074780,8.634714,1.975058,0.147016,-0.572067
11.800000,-0.310200,-0.584767,-0.046862,,,,,,,,,,,-0.304197,-0.587850,-0.050400,0.795756,-0.402229,0.569658,-1.089568,0.428624,-0.574356,-1.532376,-0.006445,0.967833,-0.376639,10.004702,0.073378,-0.314903,-3.370756
11.900000,-0.428686,-0.338946,0.014318,,,,,,,,,,,-0.427228,-0.347099,0.017304,0.610444,-0.376040,0.572127,-1.323569,0.426300,-0.591163,-1.494709,-0.014006,0.960881,-0.119238,13.328875,0.059674,-0.348398,-0.407958
12.000000,-0.333109,-0.506716,-0.732367,,,,,,,,,,,-0.336627,-0.495677,-0.717185,0.293195,-0.361302,0.560130,-1.669484,0.423488,-0.613348,-1.453175,0.116539,1.191257,-0.042776,15.778447,1.000796,1.993873,0.713181
12.100000,0.432073,-0.413201,-0.910732,,,,,,,,,,,0.427762,-0.442963,-0.924292,-0.392502,-0.363481,0.540411,-2.420549,0.381202,-0.655934,-1.402736,-0.064658,0.909938,0.239249,16.423474,-1.875782,-0.823964,3.402942
12.200000,0.011785,0.298235,0.350014,147.690613,0.120000,80.332594,52.223809,117.100613,123.398438,4.792677,4.000000,20.941203,0.000000,0.018906,0.285651,0.338903,-0.643499,-0.381625,0.536305,-2.656674,0.371942,-0.654485,-1.402736,-0.021074,0.964731,-0.203671,14.479581,-1.644223,-0.207957,-1.269995
12.300000,0.221935,0.468778,0.348443,,,,,,,,,,,0.219882,0.474543,0.354952,-0.496715,-0.390153,0.540552,-2.452113,0.398672,-0.629718,-1.443995,0.160619,1.043309,-0.052565,13.842606,0.629524,0.532525,0.272999
12.400000,0.234424,0.191941,-0.036858,,,,,,,,,,,0.236730,0.185291,-0.034930,-0.623616,-0.401153,0.545685,-2.559271,0.399788,-0.617621,-1.468820,0.147061,0.994110,-0.066579,12.310966,0.589881,-0.021856,-0.105497
12.500000,0.397755,0.041470,0.260949,,,,,,,,,,,0.397600,0.028820,0.252201,-0.883636,-0.412775,0.550522,-2.802757,0.398106,-0.606624,-1.488178,0.024956,0.928569,-0.050818,10.438784,-0.494309,-0.642928,-0.224241
12.600000,0.009311,-0.236261,0.058388,,,,,,,,,,,0.012187,-0.218359,0.071641,-1.184724,-0.416568,0.562759,-1.843635,0.396800,-0.593536,-1.519016,0.176877,1.174110,-0.102840,8.962665,1.243984,1.706781,-0.959447
12.700000,0.498026,-1.103923,-1.192633,,,,,,,,,,,0.491044,-1.103243,-1.174869,-1.314716,-0.409498,0.566114,1.718481,0.357276,-0.619337,-1.464773,0.365779,1.136830,0.056009,9.244101,2.611874,1.428420,0.344563
12.800000,0.768390,-0.800142,-1.920583,,,,,,,,,,,0.768900,-0.810987,-1.920819,-1.417708,-0.425812,0.544994,2.761228,0.267797,-0.670029,-1.284714,0.336174,1.014110,0.127383,6.545391,0.720083,0.534452,0.220204
12.900000,0.658643,-0.950088,-1.899467,,,,,,,,,,,0.662584,-0.949550,-1.900465,-1.398000,-0.452735,0.504301,2.704577,0.181354,-0.711911,-1.082545,0.406244,0.963164,0.075253,2.539236,-0.164171,0.787148,-1.209196
13.000000,0.368174,-1.094932,-1.811153,,,,,,,,,,,0.374121,-1.102280,-1.815540,-1.333930,-0.459307,0.463396,2.651138,0.086347,-0.752255,-0.890377,0.455951,0.836160,0.221144,322.367191,-0.958345,0.547884,-0.730392
13.100000,0.027732,-0.848404,-1.053724,,,,,,,,,,,0.034342,-0.855910,-1.066086,-1.253950,-0.449474,0.428716,2.612938,0.010552,-0.783384,-0.749804,0.482558,0.445914,0.278918,355.322134,-1.450625,-2.336842,-0.875896
13.200000,-0.102772,-0.548787,-0.486919,147.690613,0.307972,-1.000000,52.223809,117.100613,-1.000000,4.792677,4.000000,20.941203,0.000000,-0.103560,-0.556679,-0.488391,-1.201321,-0.432539,0.417369,2.579188,-0.030295,-0.798555,-0.695111,0.623337,0.409088,0.420883,353.354974,-0.239627,-2.268539,0.125539
13.300000,-0.240619,-0.345154,-0.430515,,,,,,,,,,,-0.232496,-0.352379,-0.427984,-1.164832,-0.419853,0.410194,2.559265,-0.054738,-0.807718,-0.664558,0.636046,0.422824,0.334148,352.096267,-0.231205,-1.892798,-0.979230
13.400000,-0.403451,-0.179864,-0.584525,,,,,,,,,,,-0.406751,-0.185229,-0.587223,-1.088972,-0.398863,0.393702,2.585366,-0.066183,-0.825485,-0.639983,0.545541,0.360861,0.507323,353.106528,-1.308746,-2.318857,0.846981
13.500000,0.121049,-0.500283,-0.762343,,,,,,,,,,,0.124009,-0.503983,-0.772977,-1.038625,-0.389097,0.369044,2.584090,-0.092714,-0.838796,-0.578920,1.233142,0.450430,0.784743,352.065211,5.119501,-1.002360,3.375917
13.600000,-0.623197,0.701420,1.116292,,,,,,,,,,,-0.617864,0.680107,1.105056,-1.031850,-0.381898,0.379668,2.593031,-0.081548,-0.838365,-0.612144,0.834285,0.607373,0.622423,353.408254,1.342557,0.413492,1.847167
13.700000,-0.725038,1.125605,1.493746,,,,,,,,,,,-0.725649,1.117994,1.489582,-1.041289,-0.377141,0.418773,2.687229,-0.000887,-0.825541,-0.763376,0.568570,0.938081,0.268167,180.425673,-0.795403,2.480706,-0.472754
13.800000,-0.442199,1.342620,1.838089,,,,,,,,,,,-0.438172,1.329123,1.831355,-1.065693,-0.378684,0.461711,2.791970,0.092208,-0.796127,-0.937274,0.374847,0.787054,0.134442,6.344045,-1.784059,-0.243016,-0.715220
13.900000,-0.625277,1.408385,1.557017,,,,,,,,,,,-0.628923,1.413989,1.571587,-1.045008,-0.379377,0.499473,2.965061,0.201065,-0.751788,-1.129770,0.673547,0.513432,-0.006435,11.126164,2.555532,-3.798554,-0.827468
14.000000,-0.087931,0.480852,0.570794,,,,,,,,,,,-0.089744,0.482083,0.579144,-0.991999,-0.378188,0.517069,3.104138,0.262384,-0.721568,-1.236856,0.527055,0.940643,-0.021219,13.421293,1.906008,0.002675,-0.325367
14.100000,0.004639,0.458591,0.274806,,,,,,,,,,,0.004121,0.450358,0.273574,-0.987520,-0.383236,0.521437,-1.249470,0.283912,-0.707507,-1.271385,0.400960,0.968164,-0.056766,13.473515,1.024753,0.107082,-0.531227
14.200000,0.050915,0.742539,0.596206,147.591736,0.424853,-1.000000,52.223811,117.001736,-1.000000,4.624170,4.003603,20.941204,0.000000,0.052443,0.737341,0.593825,-0.991793,-0.394140,0.524504,-3.076296,0.313082,-0.686531,-1.313854,0.284912,0.903127,-0.021899,13.168426,0.327981,-0.630477,-0.062008
14.300000,0.050281,0.561709,0.483726,,,,,,,,,,,0.053640,0.561009,0.481528,-1.002907,-0.406763,0.529082,-3.016310,0.345365,-0.659724,-1.366286,0.405879,0.951486,-0.180197,12.656104,1.994767,-0.283469,-1.551021
14.400000,0.057347,-0.276112,0.664938,,,,,,,,,,,0.056151,-0.272377,0.667143,-0.940149,-0.399237,0.546274,-2.940846,0.362434,-0.640874,-1.427091,0.238806,0.963213,-0.133810,12.768645,0.971287,-0.218799,-0.978714
14.500000,-0.003215,-0.196128,0.735543,,,,,,,,,,,0.001907,-0.202781,0.733776,-0.851007,-0.380784,0.574266,-2.883058,0.363533,-0.626851,-1.492292,0.130145,0.993146,-0.038499,12.884803,0.506305,-0.047030,-0.224727
14.600000,0.061488,-0.409818,0.494756,,,,,,,,,,,0.061527,-0.408702,0.499679,0.053502,-0.360396,0.599727,-2.008960,0.366100,-0.613449,-1.547029,0.161856,1.011781,-0.072069,13.613833,1.482344,0.130868,-0.542898
14.700000,0.021529,-0.786370,0.276181,,,,,,,,,,,0.025465,-0.791369,0.275263,1.597083,-0.335388,0.623159,-0.533649,0.349247,-0.614038,-1.546921,0.049100,0.994640,-0.122322,14.702594,0.662371,-0.068617,-1.068027
14.800000,-0.044616,-0.572111,0.074392,,,,,,,,,,,-0.043983,-0.581244,0.078500,1.831847,-0.307011,0.641278,-0.375452,0.329695,-0.621069,-1.527808,0.061504,0.980695,-0.017860,16.249594,1.003988,-0.176946,-0.042928
14.900000,-0.074530,-0.459831,-0.474709,,,,,,,,,,,-0.071750,-0.458146,-0.460837,1.461684,-0.291259,0.643934,-0.795794,0.313621,-0.634081,-1.533942,0.191896,1.120647,-0.086464,17.166270,2.139892,1.195774,-0.607680
15.000000,-0.203837,-1.069312,-1.158991,,,,,,,,,,,-0.200185,-1.074635,-1.160954,-0.281741,-0.273675,0.622983,-2.624685,0.275600,-0.678591,-1.490844,0.058656,1.011987,-0.059769,18.624278,-0.141330,0.149392,-0.277295
15.100000,-0.119807,-0.247808,0.109180,,,,,,,,,,,-0.124965,-0.265949,0.087974,-0.382309,-0.251235,0.607145,-2.798550,0.249120,-0.711448,-1.423065,0.061044,0.811275,0.069662,20.233635,-0.745680,-1.774217,1.180053
15.200000,0.120555,0.186704,0.339267,147.523743,0.307972,-1.000000,52.223813,116.933743,-1.000000,4.494992,4.009738,20.941204,0.000000,0.126318,0.181601,0.341811,-0.340396,-0.248012,0.623477,-2.761833,0.249579,-0.698175,-1.465044,0.260904,1.058311,-0.028160,19.689820,1.600707,0.660786,0.093479
15.300000,-0.170878,-0.023881,0.489192,,,,,,,,,,,-0.171036,-0.025864,0.488111,-0.076127,-0.243058,0.633620,-2.492682,0.258057,-0.687602,-1.490467,0.074127,0.962402,-0.044992,20.180668,0.085240,-0.348331,0.044936
15.400000,0.035175,-0.035296,0.445159,,,,,,,,,,,0.038870,-0.046431,0.448146,0.639417,-0.231855,0.651630,-1.786829,0.263069,-0.672586,-1.516462,0.039832,1.034042,0.016222,20.814375,0.278910,0.357563,0.631159
15.500000,0.066038,0.263259,0.241000,,,,,,,,,,,0.063023,0.260142,0.243814,1.248813,-0.231915,0.661266,-1.164041,0.271847,-0.659560,-1.513774,0.081282,1.072755,-0.013672,20.825026,1.027355,0.748980,0.376569
15.600000,0.008005,0.120929,0.162171,,,,,,,,,,,0.012250,0.117561,0.160967,1.579637,-0.237450,0.666297,-0.820352,0.274799,-0.651262,-1.513713,0.036456,0.964679,-0.056880,20.229930,0.705229,-0.400913,-0.146249
15.700000,0.025497,0.108545,-0.063411,,,,,,,,,,,0.027557,0.098333,-0.056439,1.716265,-0.236159,0.669920,-0.685442,0.274912,-0.647960,-1.507742,0.028621,1.080634,-0.070094,19.950719,0.773472,0.881006,-0.290073
15.800000,-0.024103,0.136425,-0.328528,,,,,,,,,,,-0.025210,0.136418,-0.326783,1.366743,-0.242686,0.660441,-1.019050,0.278932,-0.653524,-1.517931,0.071214,0.941603,0.006223,19.872484,0.976652,-0.569017,0.485733
15.900000,0.019921,0.128535,-0.418262,,,,,,,,,,,0.020431,0.122238,-0.416575,0.607523,-0.250964,0.647096,-1.768977,0.276801,-0.664550,-1.525179,0.048758,1.052347,0.036368,19.256373,0.388654,0.509351,0.785718
16.000000,0.102681,0.248871,-0.598911,,,,,,,,,,,0.104842,0.244805,-0.595995,-0.207892,-0.266419,0.628456,-2.564559,0.274113,-0.677378,-1.499875,0.108685,1.029671,0.027657,18.780953,0.493693,0.339229,0.620029
16.100000,0.093709,0.295792,-0.244857,,,,,,,,,,,0.090620,0.286824,-0.258620,-0.530661,-0.282923,0.607611,-2.863890,0.272259,-0.690361,-1.452681,0.053702,0.888756,-0.021179,17.808749,-0.603488,-1.065159,0.122361
16.200000,0.222031,0.468386,0.228730,147.382691,0.380000,7.535240,52.223851,116.792691,324.492166,4.439639,4.017388,20.941161,3.270000,0.231229,0.467776,0.231531,-0.751436,-0.304634,0.608463,-3.035788,0.282365,-0.676127,-1.469781,0.197014,1.022527,-0.064854,16.046549,0.973908,0.291943,-0.574493
16.300000,-0.180880,0.390542,0.246203,,,,,,,,,,,-0.182116,0.380665,0.246118,-0.622313,-0.311679,0.607903,-2.866522,0.301252,-0.665208,-1.488103,0.092758,0.936823,-0.077220,15.791773,0.136619,-0.579643,-0.506302
16.400000,0.202843,0.129910,0.030980,,,,,,,,,,,0.198712,0.133300,0.033084,-0.550651,-0.319035,0.607005,-2.761770,0.315039,-0.656119,-1.500773,0.164502,1.028802,0.017017,15.487177,0.988216,0.301576,0.389450
16.500000,-0.050858,-0.359678,-0.076311,,,,,,,,,,,-0.042066,-0.360376,-0.077476,-0.817603,-0.321439,0.610342,-3.042492,0.303909,-0.657093,-1.500117,0.200285,0.935727,-0.181705,14.668348,1.248526,-0.599519,-1.686529
16.600000,-0.135686,-0.303874,0.081302,,,,,,,,,,,-0.140698,-0.307694,0.080753,-0.538440,-0.304316,0.612363,-2.797698,0.299109,-0.665520,-1.495052,0.120427,1.127614,0.130154,16.251136,0.490069,1.297637,1.545866
16.700000,0.085063,-0.394154,0.213771,,,,,,,,,,,0.091795,-0.406764,0.207965,-0.627576,-0.293705,0.622315,-2.926588,0.284297,-0.667523,-1.505307,0.071320,1.074846,-0.049879,16.332645,0.069725,0.716471,-0.377710
16.800000,0.228767,-0.138010,-0.055597,,,,,,,,,,,0.224586,-0.140796,-0.047395,-0.648774,-0.289839,0.630832,-1.072599,0.282014,-0.662168,-1.524130,0.126526,0.872653,0.025407,16.298897,0.791220,-1.192824,0.326810
16.900000,0.190192,0.242828,-0.206837,,,,,,,,,,,0.188002,0.231240,-0.203493,-1.062191,-0.296718,0.630073,2.904507,0.270029,-0.664848,-1.508717,0.046062,1.033284,0.089236,15.066652,-0.139174,0.348565,0.739669
17.000000,0.017486,0.371177,-0.147531,,,,,,,,,,,0.020727,0.362740,-0.156517,-1.167753,-0.312668,0.619758,2.822057,0.268664,-0.667773,-1.478551,0.066994,1.022945,-0.047328,13.991618,-0.209608,0.188868,-0.741747
17.100000,0.184924,0.500140,0.379744,,,,,,,,,,,0.188053,0.500052,0.380779,-1.360085,-0.327920,0.619291,2.675871,0.283094,-0.654757,-1.489427,0.110019,0.932083,0.003613,12.909964,0.384763,-0.572975,-0.307365
17.200000,0.116582,0.426410,0.062403,147.652772,1.100000,23.241752,52.223875,117.062772,325.195291,4.510871,4.008993,20.941134,3.270000,0.118285,0.422869,0.066334,-1.669835,-0.343419,0.620751,2.416470,0.299657,-0.637878,-1.504259,0.105418,1.070369,0.010936,11.542751,0.542548,0.701917,-0.341180
17.300000,0.036738,0.261119,-0.029944,,,,,,,,,,,0.039321,0.257769,-0.030873,-1.751228,-0.355574,0.616553,2.364842,0.306091,-0.632234,-1.497368,0.067484,0.942458,-0.054099,10.307311,0.142997,-0.547086,-1.038245
17.400000,-0.041229,0.003321,0.075495,,,,,,,,,,,-0.036999,0.000936,0.073157,-1.773527,-0.359467,0.614937,2.354751,0.309814,-0.629800,-1.497479,0.077522,1.029572,-0.118814,9.661194,0.255448,0.315865,-1.679362
17.500000,-0.069062,-0.334780,0.056042,,,,,,,,,,,-0.066901,-0.336761,0.056897,-1.782557,-0.349985,0.619681,2.327124,0.307811,-0.631447,-1.508862,0.096664,0.978178,-0.059644,9.540075,0.533580,-0.195281,-1.020586
17.600000,-0.179653,-0.430425,0.038303,,,,,,,,,,,-0.178384,-0.429654,0.041069,-1.660134,-0.332875,0.625726,2.410139,0.300249,-0.638332,-1.521242,0.022147,1.122337,-0.055954,9.474643,-0.147036,1.200167,-0.863022
17.700000,-0.156699,-0.816537,-0.199948,,,,,,,,,,,-0.152459,-0.824512,-0.201277,-1.281607,-0.307972,0.630711,2.720934,0.281955,-0.653984,-1.521039,0.061748,0.848096,-0.035335,8.571772,0.145497,-1.450639,-0.541881
17.800000,-0.160156,-0.048619,0.069584,,,,,,,,,,,-0.161755,-0.061439,0.069909,-0.862532,-0.288142,0.633231,0.581506,0.272625,-0.664573,-1.521129,-0.075392,1.210631,0.142828,6.429583,-1.221689,2.062062,1.392032
17.900000,0.009651,0.100004,-0.064105,,,,,,,,,,,0.009485,0.092059,-0.063140,-0.731817,-0.287734,0.631640,-3.051916,0.276782,-0.664552,-1.521736,-0.017972,0.762567,-0.022295,2.399180,-0.657824,-2.340066,-0.215208
18.000000,-0.026075,0.387491,0.005106,,,,,,,,,,,-0.023464,0.379674,0.004743,-0.757905,-0.295685,0.627375,-3.055236,0.283519,-0.662237,-1.518555,-0.070381,1.162291,0.037534,215.898384,-1.200633,1.634091,0.452371
18.100000,0.163498,0.104784,-0.151492,,,,,,,,,,,0.164286,0.102596,-0.153245,-0.858313,-0.308472,0.620572,0.016918,0.290562,-0.659767,-1.509560,-0.042133,0.924794,-0.002982,287.679644,-1.022340,-0.734098,-0.068486
18.200000,0.194704,0.008526,0.019889,147.659364,1.210000,19.217424,52.223904,117.069364,327.656230,4.544372,4.007414,20.941107,3.270000,0.193174,0.005692,0.019598,-1.095874,-0.316767,0.619850,2.929280,0.287527,-0.657844,-1.502659,-0.149783,0.990404,-0.026225,2.895184,-2.117988,-0.049133,-0.384910
18.300000,0.215581,-0.044721,0.107975,,,,,,,,,,,0.216924,-0.045911,0.105543,-1.422713,-0.322576,0.624987,2.599572,0.279835,-0.653464,-1.497821,-0.170767,0.983310,-0.099963,8.225948,-2.276366,-0.158910,-1.348178
18.400000,0.267722,-0.364307,0.124093,,,,,,,,,,,0.268347,-0.366133,0.126904,-1.784517,-0.321220,0.636583,2.216073,0.267218,-0.648173,-1.492272,-0.104352,0.964162,-0.051466,13.138945,-1.478868,-0.276719,-1.097247
18.500000,0.188156,-0.277705,0.029839,,,,,,,,,,,0.191544,-0.283336,0.028799,-1.981168,-0.316665,0.647123,1.984823,0.249256,-0.647154,-1.475383,-0.078818,1.066707,-0.017828,16.700915,-1.150585,0.668530,-1.055382
18.600000,0.104305,-0.246639,0.111157,,,,,,,,,,,0.104727,-0.248378,0.111931,-2.108492,-0.312045,0.655268,1.834474,0.238813,-0.645143,-1.466116,-0.086211,0.923511,-0.011469,18.713125,-1.102950,-0.691969,-1.079077
18.700000,0.113047,-0.205185,-0.083351,,,,,,,,,,,0.117170,-0.211898,-0.080235,-2.157779,-0.308154,0.660942,1.763363,0.228326,-0.645025,-1.455602,0.033122,1.108502,-0.012096,18.883246,0.124948,1.144590,-1.251507
18.800000,0.086776,-0.368166,-0.206564,,,,,,,,,,,0.086489,-0.371918,-0.207642,-2.027725,-0.304683,0.659516,1.868630,0.215378,-0.652511,-1.443927,0.004933,0.967279,-0.040810,18.042178,-0.334589,-0.265345,-1.568036
18.900000,0.359265,-0.363409,-0.054417,,,,,,,,,,,0.357563,-0.367058,-0.054037,-1.990139,-0.300223,0.663718,1.867356,0.193835,-0.657055,-1.419879,-0.057631,0.951392,0.047459,16.074100,-0.988669,-0.350804,-0.954229
19.000000,0.309985,-0.394349,-0.315596,,,,,,,,,,,0.316736,-0.402288,-0.311542,-1.973370,-0.300476,0.668600,1.841951,0.164783,-0.659890,-1.378118,0.027513,1.083783,-0.089893,13.076378,-0.231178,0.977178,-2.692687
19.100000,0.046231,-0.634927,-0.282843,,,,,,,,,,,0.035202,-0.634786,-0.276654,-1.839340,-0.292926,0.665497,1.926510,0.138746,-0.672281,-1.352064,0.013231,0.986914,-0.109073,11.267206,-0.609713,-0.035772,-3.131705
19.200000,-0.143005,-0.785984,-0.179346,147.686463,1.590000,29.266135,52.223933,117.096463,325.195290,4.905645,4.000000,20.941075,3.390000,-0.151590,-0.822781,-0.162089,-1.735463,-0.269140,0.667400,1.959204,0.114605,-0.684734,-1.350387,0.045068,1.087570,-0.084303,11.223954,-0.368043,1.241116,-2.743935
19.300000,-0.287201,-0.914024,0.009073,,,,,,,,,,,-0.300590,-0.899622,0.011984,-1.668298,-0.232370,0.674953,1.939805,0.092856,-0.693995,-1.371331,0.075128,0.992276,-0.041284,12.488757,-0.012481,0.244329,-2.205086
19.400000,-0.387441,-0.761397,0.094022,,,,,,,,,,,-0.372518,-0.756609,0.097684,-1.621904,-0.191143,0.683794,1.900109,0.075290,-0.700043,-1.405158,0.040080,0.977904,-0.004213,14.068443,-0.081705,-0.488433,-1.780407
19.500000,-0.461829,-0.266425,-0.039042,,,,,,,,,,,-0.470290,-0.259554,-0.035981,-1.544660,-0.157339,0.688434,1.920580,0.070058,-0.704505,-1.445021,0.041827,1.112624,0.004854,16.360999,-0.037113,1.835456,-0.931358
19.600000,-0.378850,-0.590343,0.338281,,,,,,,,,,,-0.379049,-0.579399,0.349561,-1.555126,-0.128943,0.694266,1.872725,0.072599,-0.704246,-1.489485,0.001538,0.890811,-0.085674,18.688469,-0.231608,-1.537290,-1.841083
19.700000,-0.327566,-0.133396,0.152399,,,,,,,,,,,-0.327376,-0.120963,0.134425,-1.964521,-0.103059,0.704787,1.429070,0.074618,-0.697895,-1.529054,0.009735,1.049086,0.009848,20.917307,0.157630,0.694548,-0.093014
19.800000,-0.397155,-0.109857,0.067755,,,,,,,,,,,-0.393221,-0.115671,0.061553,-0.070097,-0.086820,0.706990,0.175385,0.086320,-0.696519,-1.552004,0.001321,0.944470,-0.065295,22.933634,0.164019,-0.636376,-0.691181
19.900000,-0.379376,-0.045272,0.035587,,,,,,,,,,,-0.376133,-0.034176,0.039841,1.838628,-0.070145,0.707118,-1.064588,0.097973,-0.696728,-1.528534,-0.028673,1.070581,0.027731,25.176201,-0.017741,0.699607,0.607955
20.000000,-0.290858,-0.099836,0.158648,,,,,,,,,,,-0.275518,-0.123436,0.171948,1.688098,-0.056751,0.708079,-1.216768,0.110122,-0.695162,-1.493105,-0.133247,0.927428,-0.065300,26.988958,-0.986904,-0.720166,0.120646
20.100000,-0.196154,0.045697,0.049885,,,,,,,,,,,-0.191735,0.072877,0.017460,1.744708,-0.045792,0.712043,-1.165199,0.117439,-0.690717,-1.465020,-0.114645,1.083261,0.109778,28.595473,-0.797895,0.863134,1.896706
20.200000,-0.188110,0.447411,-0.159312,147.680665,1.310000,17.460742,52.223974,117.090665,329.765601,4.703828,4.000000,20.941041,4.050000,-0.193560,0.515806,-0.152647,1.607369,-0.048851,0.706889,-1.276951,0.132237,-0.693096,-1.451055,-0.120891,1.038966,0.015565,29.400879,-0.741451,0.392273,1.333498
20.300000,-0.170620,0.764966,-0.172607,,,,,,,,,,,-0.166867,0.721783,-0.180337,1.448734,-0.067333,0.697978,-1.365929,0.162275,-0.694134,-1.436236,-0.078455,1.021724,-0.009338,30.010521,-0.621605,0.495059,1.276033
20.400000,-0.166122,0.445311,-0.120478,,,,,,,,,,,-0.162315,0.392121,-0.108092,1.317327,-0.084634,0.688427,-1.430892,0.190938,-0.694538,-1.420039,-0.029756,0.874043,-0.070842,30.833974,-0.051905,-1.223147,0.769972
20.500000,-0.290356,0.355953,0.095137,,,,,,,,,,,-0.303451,0.380563,0.109971,1.282648,-0.090990,0.683959,-1.427814,0.210410,-0.692520,-1.401241,-0.035365,1.168693,-0.089417,31.772960,-0.144218,1.646462,0.789809
20.600000,-0.112713,0.126238,-0.226197,,,,,,,,,,,-0.112307,0.127780,-0.223618,1.242751,-0.095848,0.678255,-1.430386,0.230863,-0.690989,-1.378555,-0.003479,0.903304,-0.016731,33.153722,0.232576,-0.770613,1.683001
20.700000,-0.174914,0.405423,-0.159300,,,,,,,,,,,-0.176846,0.397433,-0.158437,1.137964,-0.099504,0.668334,-1.510229,0.243969,-0.695590,-1.362479,0.008629,1.088853,0.051878,34.007508,0.224119,1.112707,2.554290
20.800000,-0.103104,0.543454,-0.193256,,,,,,,,,,,-0.099641,0.538466,-0.194300,1.043450,-0.115042,0.657701,-1.553458,0.263114,-0.696339,-1.353920,0.032103,0.979669,-0.067162,34.479771,0.339929,-0.019181,1.430457
20.900000,-0.032915,0.489392,-0.152534,,,,,,,,,,,-0.032135,0.476298,-0.152389,0.967252,-0.129504,0.648278,-1.583140,0.279893,-0.696115,-1.347128,0.014433,1.073343,0.010017,33.952961,0.119839,1.013180,2.282643
21.000000,0.076597,0.717460,-0.210747,,,,,,,,,,,0.076362,0.717449,-0.211811,0.880809,-0.154118,0.637045,-1.600569,0.301422,-0.692429,-1.347726,0.034242,0.971793,-0.049814,32.982894,0.272060,-0.084767,1.662088
21.100000,0.037250,0.426924,-0.007242,,,,,,,,,,,0.040876,0.422829,-0.009402,0.829264,-0.175517,0.630303,-1.598306,0.315869,-0.687101,-1.356256,0.033463,1.062448,-0.079161,31.240904,0.272737,0.875593,1.316755
21.200000,0.180420,0.350306,-0.092448,147.617677,1.890000,30.640259,52.224006,117.027677,325.898413,4.984342,4.000000,20.941004,3.820000,0.178980,0.347707,-0.092463,0.815881,-0.191945,0.626546,-1.568087,0.328234,-0.680313,-1.363210,0.021944,0.995078,-0.012827,30.637715,0.209093,0.142724,1.889044
21.300000,0.115987,0.346940,-0.078150,,,,,,,,,,,0.118816,0.339157,-0.077701,0.765615,-0.209563,0.623365,-1.587086,0.331499,-0.676446,-1.382437,-0.000786,1.093086,-0.044919,29.726204,-0.026644,1.108829,1.405105
21.400000,0.204780,0.473880,-0.198071,,,,,,,,,,,0.203402,0.472214,-0.196746,0.693632,-0.230036,0.616302,-1.612528,0.341440,-0.671274,-1.394805,0.053871,0.954178,-0.027309,29.372522,0.457149,-0.334041,1.437203
21.500000,0.070808,0.157985,-0.162800,,,,,,,,,,,0.078214,0.157885,-0.163992,0.563912,-0.249613,0.609289,-1.709387,0.343400,-0.669721,-1.412785,0.071373,1.015892,-0.129822,27.834696,0.490529,0.328817,0.253468
21.600000,-0.036665,-0.068658,-0.386828,,,,,,,,,,,-0.042802,-0.065484,-0.380143,0.439108,-0.251911,0.599797,-1.828831,0.344217,-0.676954,-1.400155,0.092204,1.044646,-0.013759,28.008138,0.478599,0.532218,1.493480
21.700000,0.190685,-0.350904,-0.635698,,,,,,,,,,,0.195775,-0.355447,-0.631049,0.112608,-0.258794,0.587363,-2.177487,0.322941,-0.695444,-1.391963,0.127086,1.061540,-0.071188,27.119036,0.284300,0.821328,0.718141
21.800000,0.032723,-0.375321,-0.972168,,,,,,,,,,,0.032632,-0.379345,-0.979498,-0.211232,-0.265819,0.560665,-2.526071,0.298211,-0.725145,-1.332428,0.156845,1.110501,-0.095944,26.828161,-0.397186,1.308377,0.368823
21.900000,0.131797,-0.559312,0.225597,,,,,,,,,,,0.135444,-0.567150,0.208854,-0.348473,-0.263325,0.553519,-2.707050,0.271462,-0.741952,-1.303232,0.041878,0.738487,-0.087747,26.336102,-1.942826,-2.229860,0.231484
22.000000,0.082498,-0.345269,0.134160,,,,,,,,,,,0.081591,-0.350672,0.150234,-0.308018,-0.248484,0.576357,-2.712087,0.258065,-0.734458,-1.346305,0.269563,1.158995,-0.001723,26.228068,0.705672,1.818346,0.917210
22.100000,0.016476,-0.205625,-0.139770,,,,,,,,,,,0.023327,-0.214284,-0.150557,-0.385082,-0.246254,0.574050,-2.817839,0.241029,-0.742774,-1.331459,0.155176,0.949983,-0.079550,26.212585,-0.719098,-0.226410,-0.058866
22.200000,0.095605,-0.081629,0.496621,147.687502,2.530000,35.481996,52.224042,117.097501,326.601535,6.097363,4.000000,20.940964,4.310000,0.086848,-0.085906,0.498830,-0.316562,-0.237611,0.584706,-2.761497,0.242278,-0.736814,-1.355107,0.172044,0.844701,0.133940,26.846901,-0.251347,-1.307646,2.125550
22.300000,0.336757,0.259637,-0.399300,,,,,,,,,,,0.345103,0.246946,-0.393107,-0.473029,-0.250022,0.592575,-2.914309,0.232778,-0.729430,-1.375025,0.262004,1.064598,0.059587,25.282099,0.697669,0.842502,0.972933
22.400000,0.146626,0.780260,0.684521,,,,,,,,,,,0.146675,0.775398,0.670995,-0.548418,-0.271168,0.585873,-2.935374,0.247304,-0.722335,-1.374526,0.075659,0.818620,-0.033357,24.593656,-1.095186,-1.502915,0.063378
22.500000,0.154251,0.463654,0.065171,,,,,,,,,,,0.156027,0.457993,0.070347,-0.568573,-0.285020,0.599387,-2.903650,0.268544,-0.698114,-1.429063,0.276476,1.181961,0.032381,22.902316,1.321495,1.813962,0.632839
22.600000,0.025728,0.547018,0.689253,,,,,,,,,,,0.028668,0.539867,0.683219,-0.553113,-0.290435,0.607281,-2.864746,0.278824,-0.684822,-1.459686,0.021611,0.824048,-0.149072,20.414419,-0.814526,-1.654988,-1.178441
22.700000,0.023072,0.189298,0.090785,,,,,,,,,,,0.024517,0.192999,0.104078,-0.313116,-0.290582,0.621543,-2.599742,0.295446,-0.664794,-1.509176,0.211841,1.130019,-0.015875,17.180550,1.546613,1.318497,0.149099
22.800000,0.030697,-0.132515,-0.112504,,,,,,,,,,,0.030465,-0.137740,-0.118449,-0.455834,-0.291134,0.618459,-2.750866,0.289369,-0.670079,-1.497691,0.074026,0.876976,-0.083524,14.289193,0.056414,-1.243856,-0.540155
22.900000,0.036253,-0.021049,0.052208,,,,,,,,,,,0.036927,-0.023291,0.058488,-0.509670,-0.292693,0.621121,-2.803381,0.288739,-0.667204,-1.505373,0.140652,1.036700,-0.007805,12.857400,0.795029,0.445657,0.152892
23.000000,-0.007709,-0.037057,-0.274987,,,,,,,,,,,-0.005446,-0.045922,-0.278472,-0.615117,-0.300646,0.612670,-2.894657,0.289688,-0.671045,-1.486760,0.065968,1.025757,-0.000992,13.444799,-0.174242,0.233998,0.177582
23.100000,-0.019379,0.268466,0.176664,,,,,,,,,,,-0.016209,0.260187,0.176787,-0.636898,-0.308541,0.609008,-2.892785,0.296927,-0.667622,-1.486235,0.097290,0.976807,-0.023860,14.797133,0.178008,-0.151900,-0.024363
23.200000,-0.019087,0.022181,-0.173237,147.810548,3.000000,41.884151,52.224074,117.220548,323.437471,7.780825,4.000000,20.940925,4.170000,-0.019285,0.018707,-0.173805,-0.616609,-0.312152,0.605834,-2.859065,0.301843,-0.666636,-1.483536,0.115298,0.995538,-0.068153,16.403091,0.282174,-0.056866,-0.441356
23.300000,-0.050553,0.059239,0.075082,,,,,,,,,,,-0.047551,0.059627,0.079350,-0.581748,-0.313716,0.603812,-2.815721,0.305653,-0.666005,-1.482024,0.122110,0.963362,-0.020479,17.629206,0.407231,-0.265749,0.078429
23.400000,0.012263,-0.453074,-0.337529,,,,,,,,,,,0.011302,-0.456845,-0.342370,-0.609861,-0.309843,0.599931,-2.863090,0.296965,-0.675140,-1.462749,0.188814,1.090187,-0.117899,18.891402,0.805022,0.891274,-0.876158
23.500000,0.052084,-0.074168,0.204114,,,,,,,,,,,0.056873,-0.085395,0.205278,-0.700715,-0.303040,0.605471,-2.987435,0.282332,-0.679588,-1.461877,0.143993,0.946939,-0.010677,19.025459,0.384833,-0.446476,0.083936
23.600000,0.167594,0.005921,-0.100007,,,,,,,,,,,0.168558,-0.002056,-0.099304,-0.763531,-0.304977,0.607645,-3.050315,0.280419,-0.677573,-1.465687,0.102728,1.027103,0.050426,18.431270,-0.024983,0.354161,0.568577
23.700000,-0.002491,0.183600,0.080388,,,,,,,,,,,0.000615,0.178062,0.077605,-0.837293,-0.311996,0.605987,-3.109642,0.282645,-0.674938,-1.464760,0.120474,1.036520,-0.038327,17.876125,0.140506,0.411685,-0.362207
23.800000,-0.114486,0.171970,0.265576,,,,,,,,,,,-0.112817,0.165914,0.263240,-0.761185,-0.313148,0.608040,-3.015505,0.293258,-0.667984,-1.481387,0.085622,0.850212,-0.105324,17.673560,-0.031889,-1.445607,-0.923267
23.900000,-0.122806,-0.244611,-0.009190,,,,,,,,,,,-0.122308,-0.240730,-0.003387,-0.569102,-0.304528,0.612948,-2.830176,0.297739,-0.665487,-1.495826,0.155290,1.098941,-0.062471,17.970526,0.818232,1.039886,-0.375823
24.000000,-0.067558,-0.240945,0.059048,,,,,,,,,,,-0.068021,-0.249119,0.055057,-0.452727,-0.291246,0.614694,-2.747151,0.289533,-0.673411,-1.487681,0.058984,0.868524,-0.033031,18.520543,-0.171321,-1.297123,-0.008322
24.100000,-0.057311,0.051278,-0.023739,,,,,,,,,,,-0.055474,0.046994,-0.018033,-0.352440,-0.286276,0.618273,-2.654115,0.289911,-0.672111,-1.494436,0.122647,1.116298,0.043488,18.883632,0.539244,1.182195,0.781811
24.200000,-0.001681,0.170533,-0.032928,147.980409,2.040000,36.062077,52.224104,117.390409,328.007787,6.552704,4.000000,20.940901,4.170000,0.000772,0.159922,-0.038742,-0.412595,-0.288746,0.613656,-2.711228,0.289268,-0.675551,-1.483211,0.066270,0.911595,-0.024246,19.207404,-0.126628,-0.850209,0.119023
24.300000,-0.012602,0.227039,0.070305,,,,,,,,,,,-0.013323,0.226089,0.073378,-0.334461,-0.294230,0.612320,-2.608082,0.299935,-0.669717,-1.489183,0.137309,1.064473,-0.000838,19.209956,0.662715,0.678702,0.398187
24.400000,0.040240,0.144364,-0.048992,,,,,,,,,,,0.042404,0.138397,-0.050206,-0.377261,-0.299312,0.610197,-2.638220,0.302955,-0.668047,-1.488785,0.091396,0.942108,-0.038937,18.603118,0.185013,-0.543755,0.004009
24.500000,0.047852,0.114664,-0.088483,,,,,,,,,,,0.047435,0.113603,-0.086621,-0.442501,-0.304552,0.607558,-2.692432,0.304722,-0.667280,-1.486292,0.103871,1.087778,-0.020929,17.899090,0.270245,0.895806,0.155231
24.600000,0.036755,0.036489,0.113839,,,,,,,,,,,0.040324,0.030041,0.110476,-0.522449,-0.308409,0.606667,-2.767580,0.303914,-0.666686,-1.485640,0.050912,0.890817,-0.070926,16.899152,-0.270660,-1.014166,-0.397173
24.700000,0.002051,-0.118921,-0.070816,,,,,,,,,,,0.002008,-0.117814,-0.066950,-0.481133,-0.307315,0.608920,-2.725651,0.305481,-0.664417,-1.492240,0.123984,1.109425,-0.052333,16.524610,0.504182,1.107835,-0.209799
24.800000,-0.014581,-0.086713,0.098391,,,,,,,,,,,-0.011723,-0.096955,0.094879,-0.480756,-0.302908,0.610048,-2.739811,0.300580,-0.667633,-1.489226,0.031677,0.902417,-0.014931,16.705092,-0.425843,-0.956003,0.176505
24.900000,0.068247,-0.045242,0.019554,,,,,,,,,,,0.070156,-0.050245,0.022615,-0.486907,-0.302966,0.613883,-2.745878,0.300699,-0.664031,-1.499763,0.111946,1.096379,-0.060210,16.473140,0.463251,1.042921,-0.335760
25.000000,0.081946,-0.027366,0.073040,,,,,,,,,,,0.080731,-0.035957,0.067456,-0.550899,-0.303887,0.614257,-2.811980,0.298426,-0.664287,-1.499554,0.020238,0.835568,-0.015958,16.596929,-0.477863,-1.657111,0.082390
25.100000,0.081150,0.239230,0.023309,,,,,,,,,,,0.085334,0.234788,0.031409,-0.684189,-0.310138,0.619210,-2.931085,0.301400,-0.655386,-1.518123,0.141652,1.188142,0.025836,16.428227,0.898111,1.899831,0.337638
25.200000,-0.017832,-0.039994,0.027931,147.738771,1.970000,28.825297,52.224139,117.148771,333.984354,6.450559,4.000000,20.940881,4.170000,-0.015030,-0.046765,0.019990,-0.763753,-0.314919,0.615331,-3.002781,0.301555,-0.656699,-1.509299,0.003653,0.807198,-0.151964,16.195227,-0.563245,-1.872837,-1.393870
25.300000,-0.055832,-0.066180,-0.042971,,,,,,,,,,,-0.055274,-0.066466,-0.040424,-0.647867,-0.311025,0.617249,-2.890510,0.303199,-0.655996,-1.514855,0.100797,1.142223,-0.000508,16.153781,0.446085,1.383129,0.126231
25.400000,-0.088980,-0.005585,0.232845,,,,,,,,,,,-0.087123,-0.014673,0.229242,-0.510592,-0.305619,0.619553,-2.762367,0.302810,-0.656538,-1.518121,-0.003850,0.842705,-0.045624,16.259879,-0.502055,-1.544349,-0.249003
25.500000,-0.115547,-0.000439,0.039618,,,,,,,,,,,-0.113417,-0.004477,0.043329,-0.164246,-0.302226,0.622849,-2.409272,0.310585,-0.651346,-1.528718,0.074554,1.084155,-0.046989,16.400445,0.418811,0.863772,-0.190442
25.600000,-0.111605,-0.023599,-0.073566,,,,,,,,,,,-0.111352,-0.029568,-0.075385,-0.063519,-0.300416,0.617947,-2.303765,0.315333,-0.654562,-1.514873,0.014932,0.917099,-0.034981,17.271819,-0.224363,-0.848211,0.067546
25.700000,-0.060547,0.092718,0.025227,,,,,,,,,,,-0.061073,0.090269,0.027142,0.014918,-0.301423,0.614983,-2.214235,0.321318,-0.653977,-1.508837,0.046013,1.021165,0.008781,18.400112,0.087992,0.280601,0.577984
25.800000,-0.034251,0.117990,0.037026,,,,,,,,,,,-0.031759,0.109160,0.034645,0.050751,-0.304078,0.612184,-2.165367,0.326884,-0.652616,-1.505119,-0.005199,1.009935,-0.039738,19.919174,-0.411955,0.097027,0.138398
25.900000,0.038610,0.205994,0.088550,,,,,,,,,,,0.040530,0.199432,0.089641,0.179129,-0.308285,0.612405,-2.018607,0.334323,-0.646637,-1.509944,-0.019980,1.049292,-0.005473,20.965820,-0.461207,0.527755,0.475707
26.000000,0.002428,0.222389,-0.059427,,,,,,,,,,,0.002913,0.217993,-0.060540,0.172908,-0.315517,0.609244,-2.002461,0.341145,-0.642557,-1.511298,-0.088062,0.943144,-0.024272,21.443724,-1.110477,-0.583005,0.291701
26.100000,-0.025292,0.177803,0.103974,,,,,,,,,,,-0.024515,0.176272,0.104801,0.230301,-0.320799,0.607236,-1.925567,0.348048,-0.638125,-1.512382,-0.069490,1.085202,-0.064729,22.203791,-0.884305,0.872011,-0.100717
26.200000,0.053621,-0.194305,0.193558,147.923280,2.530000,36.629160,52.224175,117.333280,335.039042,7.087446,4.000000,20.940853,4.150000,0.053080,-0.194009,0.189015,0.397041,-0.319421,0.610311,-1.758497,0.349658,-0.634990,-1.515268,-0.213602,0.824191,-0.090033,23.401202,-2.205166,-1.721022,-0.342315
26.300000,0.094955,-0.320114,0.066289,,,,,,,,,,,0.096344,-0.325477,0.072250,0.824311,-0.309062,0.623851,-1.363957,0.339631,-0.632390,-1.525815,-0.123886,1.150612,-0.061870,24.171587,-1.123258,1.497248,-0.171862
26.400000,0.083702,-0.253757,-0.164285,,,,,,,,,,,0.085459,-0.263866,-0.162506,0.622722,-0.304084,0.626562,-1.593138,0.327269,-0.638615,-1.533589,-0.122060,0.899544,-0.063075,24.240333,-1.186515,-0.984231,-0.260619
26.500000,0.004761,0.154576,-0.288089,,,,,,,,,,,0.008394,0.139647,-0.287959,-0.006271,-0.306594,0.622204,-2.233240,0.317715,-0.646446,-1.532520,0.000903,1.092696,0.024338,23.961084,-0.229733,0.902812,0.520265
26.600000,-0.085611,0.433819,-0.037580,,,,,,,,,,,-0.083681,0.433120,-0.041339,-0.229947,-0.318971,0.609350,-2.419928,0.328555,-0.647271,-1.515399,-0.003212,0.891367,-0.021429,23.776841,-0.427726,-1.058322,0.146665
26.700000,-0.141070,0.176807,0.043187,,,,,,,,,,,-0.138640,0.176302,0.045352,-0.048967,-0.324726,0.604037,-2.206836,0.342862,-0.641970,-1.511180,0.032036,1.063504,-0.128761,23.744055,-0.031940,0.672014,-0.785718
26.800000,-0.026633,0.081405,-0.095240,,,,,,,,,,,-0.026027,0.072461,-0.095986,-0.012973,-0.324798,0.598924,-2.161765,0.348307,-0.643797,-1.499102,-0.022084,1.005933,0.037456,24.015625,-0.613503,0.065718,0.950277
