seconds_elapsed,gyroscope_z,gyroscope_y,gyroscope_x,location_altitude,location_speedAccuracy,location_bearingAccuracy,location_latitude,location_altitudeAboveMeanSeaLevel,location_bearing,location_horizontalAccuracy,location_verticalAccuracy,location_longitude,location_speed,gyroscopeUncalibrated_z,gyroscopeUncalibrated_y,gyroscopeUncalibrated_x,orientation_yaw,orientation_qx,orientation_qz,orientation_roll,orientation_qw,orientation_qy,orientation_pitch,accelerometerUncalibrated_z,accelerometerUncalibrated_y,accelerometerUncalibrated_x,compass_magneticBearing,accelerometer_z,accelerometer_y,accelerometer_x
0.000000,0.053289,0.065942,0.133204,155.811871,-1.000000,-1.000000,52.223365,119.568153,-1.000000,1153.057187,61.331123,20.942057,-1.000000,0.030773,0.041500,0.127385,-1.543138,-0.175137,0.675650,0.112446,-0.709995,0.093409,0.384310,-0.934284,-0.349782,0.120917,291.003866,0.010636,0.302129,0.198729
0.100000,-0.038143,-0.003807,-0.037956,,,,,,,,,,,-0.037885,-0.003634,-0.036103,-1.543054,-0.175459,0.675556,0.109377,-0.709682,0.095838,0.388206,-0.906583,-0.385153,0.085677,289.154762,0.140383,-0.064067,-0.151704
0.200000,-0.382949,0.157119,0.558281,,,,,,,,,,,-0.389981,0.149939,0.554868,-1.562218,-0.190193,0.678049,0.129517,-0.702871,0.099508,0.414021,-0.884357,-0.434816,0.068826,281.692683,0.209124,-0.320023,-0.492262
0.300000,-0.642522,-0.268580,0.277480,,,,,,,,,,,-0.641987,-0.274990,0.283790,-1.629466,-0.199584,0.697637,0.148096,-0.679728,0.106387,0.433234,-0.939284,-0.389850,0.146169,276.670408,-0.400126,0.294022,0.132422
0.400000,0.015814,0.158359,-0.083468,151.290325,-1.000000,-1.000000,52.223760,120.700325,-1.000000,35.000000,26.969049,20.941395,-1.000000,0.022912,0.152983,-0.084884,-1.671047,-0.206098,0.709050,0.165439,-0.665673,0.107685,0.441320,-0.852946,-0.425969,0.134209,273.963669,0.373940,0.013244,-0.134428
0.500000,0.462624,-0.862671,0.446057,,,,,,,,,,,0.470445,-0.881478,0.449517,-1.644445,-0.207134,0.699964,0.140647,-0.672189,0.122401,0.466480,-0.914574,-0.422935,0.071512,266.324888,-0.269470,0.274081,-0.514282
0.600000,0.041637,0.063867,0.151518,298.189209,2.880000,68.156832,52.225137,267.599209,12.304688,26.120029,48.000000,20.941301,1.890000,0.043086,0.087086,0.137948,-1.614525,-0.192296,0.694274,0.045317,-0.672555,0.169213,0.516276,-0.825761,-0.517566,0.065710,231.264788,0.410135,-0.253448,0.239106
0.700000,0.453876,0.027542,-0.118077,,,,,,,,,,,0.452014,-0.001882,-0.106894,-1.578615,-0.198108,0.681279,0.068880,-0.687994,0.152314,0.500822,-0.841754,-0.431342,0.098732,246.923128,0.333261,0.491195,0.366336
0.800000,-0.338460,-0.336071,0.095957,,,,,,,,,,,-0.340544,-0.341863,0.101239,-1.571414,-0.187585,0.681958,0.029408,-0.686751,0.167562,0.507733,-0.809721,-0.560986,0.089702,235.009989,0.608140,-0.728475,0.604523
0.900000,0.066004,-0.264856,-0.305092,,,,,,,,,,,0.079672,-0.265861,-0.323186,-1.602062,-0.178452,0.694055,0.002629,-0.673146,0.182307,0.515939,-0.648198,-0.422162,0.087526,214.330005,2.152185,0.655849,0.862937
1.000000,0.428758,-0.211926,-0.921583,,,,,,,,,,,0.426879,-0.199626,-0.922854,-1.562787,-0.141752,0.689983,-0.049663,-0.687717,0.174797,0.451411,-0.893915,-0.355901,-0.193672,170.357559,0.136961,0.790434,-1.436343
1.100000,-0.064478,-0.039004,-0.305552,,,,,,,,,,,-0.066447,-0.044575,-0.297838,-1.550659,-0.116777,0.690645,-0.051627,-0.697743,0.149922,0.379084,-1.163602,-0.367250,-0.104353,176.910008,-2.343624,0.024718,-0.575408
1.200000,-0.044760,0.020454,-0.169835,298.300842,3.130000,76.477410,52.225148,267.710842,12.304688,28.002507,48.000000,20.941305,1.890000,-0.043933,0.011225,-0.166265,-1.564121,-0.108493,0.696486,-0.046851,-0.695299,0.140264,0.353585,-0.980070,-0.342664,0.004524,285.552176,-0.437281,0.043765,0.482133
1.300000,0.025394,-0.094964,0.092233,,,,,,,,,,,0.025369,-0.110193,0.098083,-1.568423,-0.105247,0.698430,-0.045095,-0.694634,0.136375,0.343425,-0.987498,-0.354143,0.011926,357.023300,-0.482976,-0.163307,0.556049
1.400000,-0.053681,-0.510882,0.415390,,,,,,,,,,,-0.048102,-0.516887,0.416558,-1.574446,-0.101867,0.700946,-0.073142,-0.689034,0.153180,0.363075,-0.968381,-0.328543,-0.092992,48.398859,-0.389677,0.250940,-0.246509
1.500000,0.216391,0.144550,-0.181391,,,,,,,,,,,0.218059,0.149561,-0.187914,-1.555732,-0.096567,0.695470,-0.115545,-0.690213,0.174674,0.385804,-0.882784,-0.388425,-0.116936,43.878298,0.418338,-0.102737,-0.126833
1.600000,0.057101,0.375105,0.134193,,,,,,,,,,,0.054784,0.371781,0.131502,-1.541040,-0.105829,0.689164,-0.086396,-0.698287,0.161823,0.379948,-0.960397,-0.446475,-0.065613,19.206862,-0.384415,-0.737981,0.157318
1.700000,-0.133501,0.042000,0.215909,,,,,,,,,,,-0.132922,0.031601,0.218251,-1.548153,-0.120579,0.689182,-0.053315,-0.697575,0.154456,0.391010,-0.945378,-0.369064,-0.050011,282.413209,-0.230632,0.102844,-0.003454
1.800000,-0.152214,-0.373642,0.080526,,,,,,,,,,,-0.150378,-0.390658,0.079527,-1.563177,-0.123669,0.693684,-0.055524,-0.691050,0.161039,0.405375,-0.820309,-0.345834,-0.081924,284.536864,0.953552,0.475269,-0.308998
1.900000,0.031872,-0.453287,-0.165461,,,,,,,,,,,0.033541,-0.429744,-0.179467,-1.565213,-0.103831,0.697589,-0.120541,-0.683951,0.186382,0.413776,-0.811737,-0.366618,-0.141484,57.516038,0.984042,0.350194,-0.298919
2.000000,-0.045040,-0.172986,-0.141652,,,,,,,,,,,-0.044317,-0.189580,-0.133198,-1.573212,-0.090650,0.702061,-0.133289,-0.682086,0.183361,0.391020,-0.973169,-0.380038,-0.110834,54.231678,-0.563600,0.010993,0.123925
2.100000,0.734163,-1.034735,0.709639,,,,,,,,,,,0.761165,-1.070239,0.733840,-1.554144,-0.076083,0.697528,-0.190567,-0.681948,0.205345,0.400566,-0.807356,-0.131778,-0.149699,67.142307,0.892732,2.482089,0.236634
2.200000,3.248313,-3.881732,1.880355,312.221802,2.030000,81.283745,52.224848,281.631802,53.437500,17.964557,24.000000,20.941336,1.890000,3.276334,-3.908211,1.873613,-1.293854,-0.017931,0.612647,-0.557082,-0.705153,0.347745,0.462407,-0.281232,0.169708,-0.391129,96.000406,4.549460,6.020707,0.801352
2.300000,3.605421,-2.573134,-0.621469,,,,,,,,,,,3.611000,-2.596812,-0.609949,-1.013123,0.130295,0.473895,-0.988603,-0.733433,0.465745,0.253087,-0.572052,0.027682,-1.002145,85.198550,-0.340882,2.715860,-1.915263
2.400000,3.538853,-2.445898,0.501703,,,,,,,,,,,3.522573,-2.398980,0.481374,-0.846715,0.282442,0.297714,-1.317602,-0.730181,0.542873,-0.090707,-0.369154,-0.058861,-1.358911,67.245362,-1.260455,-1.468247,-3.931896
2.500000,1.976653,-1.230049,0.443530,,,,,,,,,,,1.953987,-1.202420,0.433203,-0.749247,0.364316,0.153738,-1.482216,-0.718880,0.570287,-0.357062,-0.088815,0.095268,-1.393597,55.202991,-0.059514,-2.488963,-4.500066
2.600000,0.980335,-0.153463,1.137227,,,,,,,,,,,0.971918,-0.127956,1.137078,-0.680676,0.384314,0.087303,-1.485343,-0.727633,0.560747,-0.479886,-0.143954,0.277612,-1.113005,49.448732,-0.704606,-1.794284,-2.197264
2.700000,0.617628,-0.197076,1.674951,,,,,,,,,,,0.629090,-0.265048,1.709237,-0.554914,0.360038,0.048478,-1.362856,-0.765642,0.529765,-0.523984,-0.285609,0.489734,-0.848781,47.121234,-1.038973,-0.118942,-0.084295
2.800000,-0.333118,-0.934021,1.108368,,,,,,,,,,,-0.347824,-0.907856,1.063442,-0.325077,0.296112,-0.041132,-1.376288,-0.762803,0.572888,-0.522750,0.044664,0.305911,-0.986899,51.493694,1.974035,-1.945309,-1.407606
2.900000,-0.603892,-0.395194,-0.783965,,,,,,,,,,,-0.603291,-0.389937,-0.782807,-0.357300,0.282829,-0.019281,-1.450455,-0.743628,0.605170,-0.459819,-0.007263,0.521156,-0.920624,56.281445,1.036268,0.818013,-0.231612
3.000000,-1.357667,0.902184,-0.679336,,,,,,,,,,,-1.333731,0.982466,-0.766964,-0.455282,0.284985,0.042507,-1.456352,-0.741988,0.604681,-0.381194,-0.103339,0.461294,-1.174262,58.881925,0.105941,0.842987,-2.115381
3.100000,-1.201574,-1.035279,0.031554,,,,,,,,,,,-1.231647,-0.894155,0.110220,-0.489647,0.247781,0.101329,-1.460743,-0.736669,0.620601,-0.241666,-0.161548,0.209081,-0.691550,65.919246,-0.553237,-0.637495,2.828909
3.200000,-0.631811,-1.375881,-1.330437,353.321289,1.580000,41.276507,52.224820,322.731289,75.937500,11.215673,16.000000,20.941523,1.890000,-0.722111,-1.452473,-1.314051,-0.588019,0.255975,0.151047,-1.606024,-0.677574,0.672015,-0.143518,0.122426,-0.053079,-0.826514,71.016158,1.122013,-2.074434,1.309524
3.300000,-0.531443,-0.127101,-0.260552,,,,,,,,,,,-0.533720,-0.260662,-0.282476,-0.659819,0.273594,0.178750,-1.702947,-0.634349,0.700484,-0.096841,0.067636,0.058548,-1.125468,72.773731,-0.794617,0.017159,-1.546064
3.400000,-1.225380,0.416528,0.225002,,,,,,,,,,,-1.182877,0.391099,0.119024,-0.657579,0.243185,0.212166,-1.684755,-0.630893,0.705189,-0.007575,0.083989,-0.032823,-1.014519,77.393469,-0.414362,-0.927933,-0.005887
3.500000,-0.194883,0.409571,1.609170,,,,,,,,,,,-0.243100,0.450293,1.525319,-0.571499,0.186241,0.213158,-1.633838,-0.650265,0.704594,0.058396,-0.033954,0.006746,-0.965184,82.759170,-0.858578,1.165936,0.087126
3.600000,0.599145,0.182941,0.915222,,,,,,,,,,,0.471853,0.191300,0.980074,-0.443506,0.144672,0.166913,-1.618927,-0.669251,0.709288,0.043204,0.106636,0.202475,-1.032983,85.106905,0.650351,2.132461,-0.156996
3.700000,1.389323,0.189417,0.678090,,,,,,,,,,,1.326586,0.175171,0.640783,-0.382670,0.158069,0.110028,-1.603597,-0.686417,0.700935,-0.062768,0.019510,-0.009111,-0.853491,81.324661,-0.238057,-0.705586,1.483277
3.800000,0.829953,0.122674,0.941012,,,,,,,,,,,0.921927,0.123384,1.027646,-0.287899,0.166529,0.035151,-1.576249,-0.704108,0.689163,-0.187084,0.003487,0.239946,-1.054787,76.121375,0.130780,0.832217,-0.920317
3.900000,1.451066,-0.005554,-0.016409,,,,,,,,,,,1.396026,0.010942,0.036252,-0.247004,0.191053,-0.017364,-1.556712,-0.711462,0.675696,-0.299930,0.044475,0.329245,-0.985765,70.945562,0.611868,0.406593,0.018800
4.000000,2.599911,0.121335,-0.280046,,,,,,,,,,,2.509422,0.070658,-0.262439,-0.267864,0.263493,-0.079097,-1.562221,-0.704857,0.652676,-0.495430,0.013811,0.531865,-0.722156,59.860196,0.205543,0.668161,1.401331
4.100000,2.436025,0.429437,-0.293179,,,,,,,,,,,2.556855,0.457755,-0.346498,-0.298105,0.358779,-0.158414,-1.549838,-0.694120,0.602450,-0.761405,-0.026511,0.805632,-0.873479,45.296797,-0.289711,1.330978,-2.065758
4.200000,0.072346,0.303036,-0.144058,340.636353,0.990000,88.572097,52.224811,310.046352,248.554688,10.973670,16.000000,20.941467,0.860000,0.102866,0.283658,-0.131710,-0.306762,0.397720,-0.189977,-1.530076,-0.690611,0.573370,-0.874498,0.020404,0.828568,-1.036482,37.148937,0.505988,0.912233,-3.005231
4.300000,1.833833,0.250350,-0.015765,,,,,,,,,,,1.757010,0.242959,-0.020012,-0.306792,0.424932,-0.209402,-1.497405,-0.690516,0.546030,-0.954492,-0.097069,0.833942,-0.642804,32.786481,-0.672456,-0.093678,-0.868929
4.400000,1.110160,-0.217106,0.452262,,,,,,,,,,,1.084236,-0.218400,0.449141,-0.205815,0.457007,-0.276962,-1.419067,-0.674851,0.508489,-1.116705,-0.103505,0.680042,-0.394461,23.870903,-0.378240,-2.131202,0.354935
4.500000,0.391988,-0.184965,0.134071,,,,,,,,,,,0.399012,-0.198730,0.136781,-0.114403,0.456393,-0.307104,-1.358775,-0.668837,0.499943,-1.162140,-0.092181,0.915123,-0.452245,21.390038,-0.085977,-0.035363,-0.589650
4.600000,0.649391,0.092013,0.033596,,,,,,,,,,,0.649942,0.100970,0.034378,-0.043061,0.460792,-0.339455,-1.332053,-0.652154,0.496982,-1.218363,-0.087834,0.952972,-0.306110,19.475360,-0.073498,0.129593,0.268579
4.700000,0.370225,0.059933,0.061057,,,,,,,,,,,0.370368,0.051288,0.056821,0.028840,0.472383,-0.355422,-1.250984,-0.648756,0.479164,-1.264847,-0.068600,0.901425,-0.328142,16.046319,0.257061,-0.511327,-0.419113
4.800000,0.914806,-0.174969,-0.200718,,,,,,,,,,,0.931179,-0.186012,-0.196827,0.050634,0.484983,-0.372872,-1.245718,-0.633165,0.473950,-1.316371,-0.091507,0.926591,-0.238109,13.493111,-0.116662,-0.398957,-0.017491
4.900000,1.395574,-0.420975,0.149413,,,,,,,,,,,1.395490,-0.431075,0.147574,0.391326,0.504547,-0.424105,-0.955440,-0.597998,0.455496,-1.428805,-0.063533,0.980678,-0.118022,7.717744,0.121646,-0.104796,-0.017632
5.000000,0.446777,-0.626917,-0.035433,,,,,,,,,,,0.439244,-0.626278,-0.035870,1.126429,0.507769,-0.473290,-0.297845,-0.561729,0.449958,-1.487137,-0.063390,0.984645,-0.076558,3.938159,0.162844,-0.106860,-0.516586
5.100000,0.368920,-0.317042,0.163853,,,,,,,,,,,0.356870,-0.320011,0.161518,1.649330,0.500792,-0.503206,0.163559,-0.539689,0.452364,-1.479342,-0.055345,1.034547,-0.077167,2.993910,0.325343,0.368311,-0.894458
5.200000,-0.180425,0.042585,-0.059412,341.194580,1.040000,-1.000000,52.224795,310.604580,-1.000000,10.173595,16.000000,20.941494,0.240000,-0.173757,0.040335,-0.059843,1.616935,0.493565,-0.508478,0.107912,-0.535750,0.459139,-1.478826,-0.093790,1.034488,0.014722,3.142452,-0.029735,0.394941,0.029036
5.300000,0.064403,0.075103,-0.199850,,,,,,,,,,,0.065835,0.076413,-0.201739,1.659620,0.495242,-0.507978,0.140465,-0.529464,0.465132,-1.493158,-0.054254,0.999344,-0.030502,3.283627,0.218645,0.017231,-0.397861
5.400000,-0.176206,0.112569,-0.089033,,,,,,,,,,,-0.178148,0.106393,-0.089043,1.632031,0.499028,-0.502944,0.114991,-0.526992,0.469351,-1.508822,-0.050256,1.049803,-0.047308,3.106769,0.104099,0.501460,-0.536325
5.500000,-0.422014,-0.112801,-0.185110,,,,,,,,,,,-0.419213,-0.124703,-0.190924,1.096899,0.492437,-0.494079,-0.424780,-0.531357,0.480625,-1.511017,-0.014655,1.073737,-0.034865,4.405854,0.374168,0.750611,-0.110456
5.600000,0.330167,-0.348559,-0.509049,,,,,,,,,,,0.346060,-0.355809,-0.508254,0.147110,0.490931,-0.487687,-1.406108,-0.517522,0.503194,-1.525338,-0.006183,1.026125,-0.014557,5.857654,0.052853,0.263853,0.273504
5.700000,0.395510,-0.801772,-0.374081,,,,,,,,,,,0.388574,-0.807696,-0.371490,-1.741975,0.499262,-0.505045,1.669650,-0.478186,0.516510,-1.535799,0.010312,0.927141,-0.057202,4.253422,-0.213504,-0.699893,-0.642971
5.800000,0.045812,-0.326076,-0.387394,,,,,,,,,,,0.047698,-0.334098,-0.384910,-1.845020,0.495957,-0.513959,2.757444,-0.446856,0.538636,-1.492917,0.029362,0.952032,-0.051213,4.434227,-0.437144,-0.445243,-0.802559
5.900000,0.084565,-0.374912,-0.014782,,,,,,,,,,,0.087153,-0.367943,-0.017848,-1.837449,0.485123,-0.525998,2.706986,-0.426501,0.553204,-1.479349,0.035240,0.996407,0.023447,4.920307,-0.457702,0.007919,-0.153864
6.000000,0.092323,-0.226232,-0.045712,,,,,,,,,,,0.091462,-0.231033,-0.046626,-1.914376,0.482344,-0.533455,2.602600,-0.414146,0.557878,-1.468256,0.077818,0.998885,0.033885,4.691205,-0.096550,0.042917,-0.182927
6.100000,-0.066542,-0.085478,-0.260839,,,,,,,,,,,-0.067078,-0.088562,-0.258908,-1.839162,0.480343,-0.533513,2.657139,-0.404464,0.566589,-1.453553,0.071506,1.030440,0.053218,4.591614,-0.312976,0.360672,-0.020249
6.200000,-0.153892,0.050221,-0.466286,337.130127,1.090000,-1.000000,52.224748,306.540127,-1.000000,10.204097,16.000000,20.941491,0.210000,-0.151076,0.047321,-0.469974,-1.651854,0.481831,-0.522692,2.836900,-0.398043,0.579770,-1.426972,0.077484,1.065025,0.122319,5.415786,-0.584772,0.736917,0.775076
6.300000,0.404683,0.154203,-0.533373,,,,,,,,,,,0.410773,0.146500,-0.532919,-1.601795,0.497131,-0.506148,2.896161,-0.385758,0.589716,-1.373400,0.201114,0.917497,0.142017,5.003673,0.086587,-0.600809,0.942586
6.400000,0.227968,0.298184,-0.288818,,,,,,,,,,,0.228586,0.293032,-0.285260,-1.705401,0.519644,-0.496457,2.810361,-0.370431,0.588416,-1.322276,0.298981,0.943355,-0.025851,2.729869,0.660994,-0.248582,-1.050968
6.500000,0.422134,-0.219174,-0.129117,,,,,,,,,,,0.423594,-0.223558,-0.124202,-1.780499,0.532084,-0.495825,2.735740,-0.356350,0.586511,-1.290003,0.219576,0.869043,0.129785,1.269439,-0.343150,-0.907580,0.188622
6.600000,0.083105,-0.035448,0.358085,,,,,,,,,,,0.076710,-0.041121,0.363816,-1.893207,0.535054,-0.508028,2.612432,-0.347395,0.578715,-1.286147,0.211455,0.898453,0.121950,287.777015,-0.289128,-0.596471,-0.187382
6.700000,-0.330134,-0.273690,0.551583,,,,,,,,,,,-0.330000,-0.280336,0.548678,-1.935492,0.515655,-0.524324,2.552256,-0.359999,0.573996,-1.339196,0.160701,0.958545,0.179402,36.689695,-0.291935,-0.164736,0.497884
6.800000,-0.336982,-0.425915,0.157398,,,,,,,,,,,-0.335057,-0.433483,0.148240,-1.897742,0.488561,-0.538722,2.550840,-0.367686,0.579492,-1.390092,0.170641,1.133624,0.138069,2.635473,0.190079,1.454886,0.388541
6.900000,-0.284279,-0.583475,-0.072213,,,,,,,,,,,-0.284723,-0.589381,-0.067663,-1.729586,0.464662,-0.545438,2.656865,-0.356794,0.599317,-1.399966,0.091623,1.004749,-0.036142,5.097559,-0.556847,0.198023,-1.107598
7.000000,-0.511960,-0.706008,0.037808,,,,,,,,,,,-0.510552,-0.709921,0.037981,-1.489806,0.432968,-0.553713,2.827738,-0.349164,0.619560,-1.419432,0.215915,0.975558,-0.103229,7.849811,0.706695,-0.117847,-1.480154
7.100000,-0.252316,-0.285785,0.101300,,,,,,,,,,,-0.246888,-0.284958,0.103696,-1.223474,0.403995,-0.559938,3.035861,-0.344081,0.636262,-1.433332,0.174066,0.997934,0.027374,10.770385,0.382001,0.073629,0.127969
7.200000,-0.150594,0.020188,0.346398,333.013672,1.000000,-1.000000,52.224707,302.423672,-1.000000,10.190114,16.000000,20.941497,0.230000,-0.149303,0.015626,0.347661,-1.083842,0.390895,-0.566478,-0.607228,-0.350065,0.635397,-1.457357,0.124866,0.998869,-0.053258,12.178079,0.118180,0.052742,-0.504879
7.300000,-0.105165,-0.099213,0.399520,,,,,,,,,,,-0.101915,-0.105956,0.397715,-0.875046,0.377871,-0.577480,-2.917343,-0.360359,0.627557,-1.495535,0.084499,0.996526,-0.041130,13.079401,0.117969,-0.007766,-0.255345
7.400000,-0.012525,-0.164528,0.041420,,,,,,,,,,,-0.012133,-0.172800,0.034734,-0.702529,0.367815,-0.587396,-2.759289,-0.361966,0.623419,-1.519172,0.086417,0.991725,-0.064070,13.582686,0.368090,-0.066974,-0.410491
7.500000,-0.121720,-0.177052,-0.260321,,,,,,,,,,,-0.118767,-0.177636,-0.260011,-0.663340,0.361206,-0.585019,-2.742403,-0.354831,0.633522,-1.501591,0.075812,0.993304,-0.098871,14.063124,0.113629,-0.039814,-0.742196
7.600000,0.050821,0.077320,-0.263413,,,,,,,,,,,0.052807,0.071460,-0.264505,-0.743875,0.364206,-0.576786,-2.825599,-0.349840,0.642080,-1.476149,0.112383,1.012279,-0.015771,14.126005,0.226839,0.163938,0.140943
7.700000,0.121453,0.175740,-0.551811,,,,,,,,,,,0.123703,0.173366,-0.557549,-0.886916,0.375038,-0.564914,-2.960505,-0.343260,0.649857,-1.442324,0.173199,1.045274,0.018987,13.510977,0.460170,0.520070,0.413587
7.800000,0.078748,-0.105011,-0.461958,,,,,,,,,,,0.075600,-0.113801,-0.449333,-1.025319,0.393602,-0.543885,-3.086573,-0.330347,0.663379,-1.379248,0.082745,0.932838,-0.169267,12.342457,-1.043999,-0.443325,-1.552265
7.900000,0.079557,0.217138,0.566226,,,,,,,,,,,0.087014,0.221687,0.574741,-1.027899,0.391580,-0.547587,-3.091503,-0.331268,0.661055,-1.388804,0.096809,0.854604,0.096449,12.283273,-0.814689,-1.278424,0.999211
8.000000,0.347484,0.381227,0.281566,,,,,,,,,,,0.338948,0.375378,0.273858,-1.295380,0.405917,-0.563490,2.340963,-0.345551,0.631042,-1.441822,0.294211,1.167854,0.000879,10.221983,1.629680,1.725978,-0.157519
8.100000,0.053085,0.258006,0.129245,,,,,,,,,,,0.058704,0.249516,0.127194,-1.357684,0.413520,-0.562870,2.937362,-0.356346,0.620628,-1.455732,0.078680,0.924487,-0.020224,9.375179,-0.325992,-0.699709,-0.451223
8.200000,0.017418,0.213374,0.051678,331.453491,1.070000,-1.000000,52.224680,300.863491,-1.000000,10.525369,16.000000,20.941514,0.000000,0.019796,0.207812,0.051558,-1.421225,0.419374,-0.562142,2.893470,-0.362212,0.613933,-1.461655,0.103322,0.986301,-0.021204,8.836887,-0.013309,-0.067174,-0.467306
8.300000,0.013832,0.123634,0.024624,,,,,,,,,,,0.014536,0.119076,0.023435,-1.450570,0.424066,-0.560207,2.881194,-0.367603,0.609263,-1.464967,0.133501,1.005833,-0.019695,8.463269,0.306905,0.109650,-0.456395
8.400000,0.013474,0.099435,0.043550,,,,,,,,,,,0.015133,0.094685,0.043897,-1.455980,0.427262,-0.558106,2.888145,-0.371652,0.606496,-1.466498,0.088469,0.987164,0.003481,8.190379,-0.120624,-0.070768,-0.228402
8.500000,0.001640,0.174353,-0.049733,,,,,,,,,,,0.002780,0.168873,-0.051562,-1.451694,0.431030,-0.555082,2.907870,-0.376882,0.603364,-1.468151,0.108601,1.003346,0.045567,7.886950,0.094023,0.087903,0.214012
8.600000,-0.004302,0.151148,-0.079333,,,,,,,,,,,-0.002909,0.147007,-0.079992,-1.446249,0.436859,-0.549838,2.928186,-0.379484,0.602343,-1.460750,0.099847,0.999207,-0.013484,7.753248,-0.079142,0.046700,-0.355969
8.700000,0.014009,0.103521,-0.130091,,,,,,,,,,,0.015976,0.097216,-0.131871,-1.418709,0.442503,-0.543323,2.971395,-0.382636,0.602141,-1.452033,0.128180,0.998360,0.008340,7.587498,0.099602,0.050414,-0.118637
8.800000,-0.021808,-0.150001,-0.540451,,,,,,,,,,,-0.022942,-0.155765,-0.545311,-1.395678,0.448692,-0.534308,2.993313,-0.374918,0.610372,-1.420768,0.228886,1.012717,-0.007404,7.361145,0.789477,0.237806,-0.288255
8.900000,-0.101161,-0.002803,-0.406300,,,,,,,,,,,-0.098531,-0.005811,-0.400882,-1.309420,0.453803,-0.517454,3.069754,-0.362235,0.628530,-1.366816,0.158865,0.954251,0.016354,7.933608,-0.420637,-0.228861,0.020568
9.000000,-0.014940,0.134770,0.072509,,,,,,,,,,,-0.013054,0.131842,0.077094,-1.282036,0.457011,-0.510133,3.104073,-0.362363,0.632131,-1.351993,0.221008,0.931276,0.062169,8.035212,0.039585,-0.439971,0.530205
9.100000,-0.045032,0.165129,0.349066,,,,,,,,,,,-0.043524,0.160920,0.353984,-1.276532,0.457007,-0.512469,1.869623,-0.372754,0.624134,-1.372635,0.155429,0.913213,0.006754,8.044657,-0.392934,-0.671998,0.022361
9.200000,-0.086557,0.118354,0.466432,328.671326,1.010000,-1.000000,52.224638,298.081326,-1.000000,10.523386,16.000000,20.941524,0.000000,-0.084854,0.114783,0.465082,-1.239956,0.450278,-0.522677,-3.104190,-0.390417,0.609580,-1.421364,0.216232,1.090239,-0.013348,8.230347,0.681238,1.015402,-0.084973
9.300000,0.077768,0.318440,0.597500,,,,,,,,,,,0.078633,0.315043,0.598639,-1.229252,0.447306,-0.531924,-3.069063,-0.408430,0.591660,-1.469940,0.099832,0.979819,-0.014481,8.119109,-0.018333,-0.159039,-0.045896
9.400000,-0.069971,0.064384,0.350959,,,,,,,,,,,-0.066984,0.055496,0.343194,-1.052461,0.441558,-0.541430,-2.869662,-0.427693,0.573524,-1.521120,0.071709,0.966545,-0.053532,7.941826,0.223357,-0.324596,-0.391707
9.500000,0.046176,-0.139293,0.179973,,,,,,,,,,,0.047972,-0.143984,0.182262,-0.902857,0.435861,-0.547980,-2.725782,-0.430359,0.569669,-1.539135,0.050455,1.020476,-0.154231,8.182290,0.222762,0.203722,-1.378608
9.600000,0.080416,-0.248050,0.253727,,,,,,,,,,,0.083283,-0.254140,0.254713,-0.147490,0.426990,-0.559565,-1.989131,-0.428825,0.566260,-1.559719,0.001929,0.995227,-0.113486,8.334764,-0.039557,-0.042156,-1.051093
9.700000,0.090425,-0.033309,0.276622,,,,,,,,,,,0.090225,-0.031400,0.273013,1.926864,0.418964,-0.573530,0.068192,-0.427190,0.559484,-1.547649,0.065439,1.005605,-0.037254,8.283419,0.859785,0.057281,-0.395640
9.800000,0.081441,-0.231432,0.000212,,,,,,,,,,,0.084002,-0.239958,-0.003784,2.112361,0.414441,-0.581278,0.241315,-0.424593,0.556823,-1.533231,-0.000806,1.006126,-0.076357,8.279549,0.350799,0.069813,-0.834332
9.900000,0.144843,-0.347961,-0.074204,,,,,,,,,,,0.146330,-0.355341,-0.073366,2.426761,0.411714,-0.586311,0.532232,-0.413907,0.561572,-1.535318,-0.016600,0.980666,0.029584,8.195740,0.132115,-0.196353,0.125019
10.000000,-0.054974,-0.513322,-0.337778,,,,,,,,,,,-0.055591,-0.526355,-0.349561,1.617611,0.403700,-0.592891,0.937809,-0.397703,0.572065,-1.539315,0.058017,1.108316,0.041132,8.502374,0.754201,1.059413,0.151155
10.100000,-0.122737,-0.595704,-0.964461,,,,,,,,,,,-0.121412,-0.585842,-0.959875,-1.497916,0.392093,-0.583391,2.770792,-0.362956,0.611455,-1.511968,0.011740,1.014651,0.073389,10.385725,-0.418258,0.184303,0.575443
10.200000,-0.040190,0.111081,-0.291997,326.860962,0.990000,94.182926,52.224634,296.270962,342.070312,10.562050,16.000000,20.941525,0.190000,-0.037861,0.109682,-0.285086,-1.170397,0.396888,-0.565131,3.084014,-0.348696,0.633640,-1.452259,-0.096622,0.983461,0.090488,10.798883,-2.085935,-0.071398,0.812818
10.300000,0.054892,0.742436,0.299027,,,,,,,,,,,0.058432,0.740290,0.304963,-1.161488,0.408044,-0.556652,0.620468,-0.361799,0.626565,-1.452179,0.031441,0.831709,0.027132,10.404367,-0.887100,-1.607374,0.289756
10.400000,-0.193099,0.501724,0.414370,,,,,,,,,,,-0.198413,0.493565,0.413211,-1.141157,0.419254,-0.555408,-0.548668,-0.390719,0.602487,-1.492458,0.195152,1.080281,-0.132761,9.418729,1.167561,0.835430,-1.263791
10.500000,-0.131497,-0.133127,0.222115,,,,,,,,,,,-0.127046,-0.145794,0.222231,-0.693160,0.412304,-0.555627,-2.594454,-0.409251,0.594793,-1.514967,0.073418,0.969139,-0.020602,10.388089,0.239800,-0.312750,0.085225
10.600000,-0.035511,-0.426473,0.124207,,,,,,,,,,,-0.033254,-0.432893,0.121720,-0.307381,0.398076,-0.564956,-2.235912,-0.407815,0.596661,-1.523822,0.146179,1.015826,-0.156061,11.473849,1.153845,0.177955,-1.155090
10.700000,-0.247453,-0.351702,0.130619,,,,,,,,,,,-0.248752,-0.354562,0.131149,-0.025276,0.381529,-0.573375,-1.993378,-0.401181,0.603894,-1.519176,-0.026236,0.966664,-0.148698,12.778051,-0.444896,-0.316221,-1.009320
10.800000,-0.185141,-0.113538,0.119435,,,,,,,,,,,-0.183138,-0.111483,0.121244,0.279599,0.363774,-0.577389,-1.717007,-0.401854,0.610567,-1.499301,-0.109508,1.001089,-0.089560,14.604184,-1.165035,0.033153,-0.172470
10.900000,-0.182560,0.235686,0.281605,,,,,,,,,,,-0.178110,0.233749,0.277703,0.565997,0.355039,-0.579008,-1.423538,-0.414450,0.605719,-1.478284,-0.083244,1.001669,-0.171664,15.624609,-0.700640,0.052388,-0.805737
11.000000,-0.212238,0.403480,-0.094468,,,,,,,,,,,-0.213004,0.397371,-0.101030,0.636122,0.357715,-0.572832,-1.321271,-0.430371,0.598868,-1.461542,0.049799,0.995486,-0.191835,16.016680,0.748261,0.020255,-0.833477
11.100000,-0.020910,-0.035711,-1.012195,,,,,,,,,,,-0.015377,-0.046034,-1.022781,0.195959,0.369205,-0.549991,-1.738792,-0.431651,0.612067,-1.442421,0.141736,1.127367,-0.073392,16.195960,1.177014,1.290101,0.463527
11.200000,0.198135,-0.129294,-0.918527,325.392456,0.990000,96.760865,52.224628,294.802456,255.234375,10.181097,16.000000,20.941529,0.000000,0.206724,-0.127739,-0.905036,-0.491048,0.391907,-0.518405,-2.431555,-0.404000,0.643610,-1.391188,-0.037346,0.950377,0.049860,15.535905,-1.685865,-0.232436,1.572233
11.300000,0.683800,0.155570,0.335086,,,,,,,,,,,0.683853,0.148392,0.344425,-0.835789,0.417021,-0.516901,-2.756522,-0.390486,0.637403,-1.395415,-0.006219,0.836244,-0.050142,12.760839,-1.656238,-1.512120,0.221336
11.400000,-0.088737,0.861119,0.724467,,,,,,,,,,,-0.092463,0.859139,0.718834,-0.876948,0.428726,-0.531279,-2.749010,-0.408505,0.605568,-1.460866,0.179672,1.136122,-0.132809,10.532931,0.731880,1.384422,-0.969307
11.500000,0.536312,-0.310556,-0.312301,,,,,,,,,,,0.542209,-0.321124,-0.320170,-0.918524,0.436846,-0.534039,-2.126406,-0.421298,0.588498,-1.488080,0.241057,1.025644,0.021973,9.417129,1.650739,0.288715,0.547142
11.600000,0.116862,-0.126875,-0.513149,,,,,,,,,,,0.116721,-0.140107,-0.520952,-1.371380,0.449906,-0.534998,3.054384,-0.395593,0.595662,-1.455571,0.257878,1.079677,-0.090665,7.663758,1.388955,0.847931,-1.031483
11.700000,0.511403,-1.081400,-1.362167,,,,,,,,,,,0.517097,-1.086609,-1.369472,-1.441675,0.456710,-0.527619,2.913701,-0.345065,0.627082,-1.358719,0.355270,1.106972,0.080075,6.867757,1.491037,1.291856,0.285726
11.800000,0.738153,-1.020369,-1.668903,,,,,,,,,,,0.739068,-1.025441,-1.670950,-1.496187,0.474530,-0.510958,2.757894,-0.258482,0.667830,-1.190717,0.403702,0.989777,0.084470,3.579852,0.587798,0.622557,-0.542619
11.900000,0.471360,-1.010453,-1.757868,,,,,,,,,,,0.469045,-1.017283,-1.758445,-1.469203,0.489134,-0.482919,2.679475,-0.166259,0.706397,-1.007885,0.438113,0.920651,0.169798,144.268997,-0.380271,0.749485,-0.676607
12.000000,0.221859,-1.134016,-1.456892,,,,,,,,,,,0.219567,-1.136904,-1.449023,-1.390725,0.486400,-0.451236,2.633195,-0.078033,0.743626,-0.844501,0.443820,0.718770,0.205981,356.908858,-1.329721,-0.243010,-1.163747
12.100000,-0.141492,-0.784452,-0.507173,,,,,,,,,,,-0.143298,-0.783885,-0.494649,-1.323275,0.469032,-0.436681,2.583657,-0.015662,0.767389,-0.754711,0.452472,0.466493,0.333649,354.137373,-1.631230,-2.125076,-0.526894
12.200000,-0.134475,-0.498377,0.020605,324.072144,1.070000,85.160308,52.224621,293.482143,310.781250,10.035232,16.000000,20.941527,0.190000,-0.133053,-0.501910,0.019395,-1.295659,0.449989,-0.445191,2.542106,0.007567,0.774084,-0.751130,0.581364,0.554974,0.429839,353.300286,-0.235094,-1.264001,0.160303
12.300000,-0.382520,-0.261030,-0.031575,,,,,,,,,,,-0.384656,-0.263563,-0.030307,-1.269407,0.432655,-0.453328,2.521517,0.017872,0.779064,-0.762735,0.639934,0.487744,0.403122,353.511020,0.516486,-1.976310,-0.154340
12.400000,-0.448722,-0.267156,-0.513673,,,,,,,,,,,-0.446220,-0.273958,-0.522074,-1.207767,0.410276,-0.453159,2.546272,0.016852,0.791144,-0.779887,0.901535,0.676006,0.441599,355.333293,3.056812,-0.297362,0.427763
12.500000,-0.267084,-0.341652,-0.843360,,,,,,,,,,,-0.262136,-0.349081,-0.844426,-1.110316,0.390152,-0.426422,2.584193,0.037869,0.815070,-0.728360,0.690416,0.542769,0.554492,356.238203,0.548762,-1.230201,1.514592
12.600000,0.223175,0.069872,-0.181236,,,,,,,,,,,0.224211,0.082114,-0.162251,-1.068333,0.383893,-0.405622,2.585659,0.060938,0.827244,-0.674284,0.831905,0.450685,0.628856,355.339259,1.642525,-1.676589,2.182557
12.700000,-0.556634,0.688587,0.605000,,,,,,,,,,,-0.563622,0.683401,0.606915,-1.082843,0.392149,-0.410182,2.628104,0.031331,0.822647,-0.708106,0.700607,0.774713,0.199664,357.184568,0.404682,1.213189,-1.713145
12.800000,-0.706952,0.881228,0.987643,,,,,,,,,,,-0.706137,0.872161,0.990248,-1.052263,0.383911,-0.426474,2.737296,-0.034111,0.817971,-0.809815,0.644699,0.803294,0.152606,3.098221,0.128101,0.787794,-1.141838
12.900000,-0.488470,0.938641,1.314807,,,,,,,,,,,-0.481145,0.940744,1.319397,-1.022097,0.373189,-0.454517,2.844337,-0.103296,0.801781,-0.938098,0.471942,0.828531,0.184824,7.929316,-0.883608,0.190144,0.112902
13.000000,-0.151183,1.027887,1.375763,,,,,,,,,,,-0.148478,1.025477,1.371683,-1.038640,0.376832,-0.488681,2.934387,-0.177269,0.766259,-1.082379,0.384499,0.904138,-0.004860,10.925720,-0.729066,0.219731,-0.996950
13.100000,-0.198322,1.215634,1.264401,,,,,,,,,,,-0.196187,1.206429,1.263065,-1.040310,0.386473,-0.512087,3.054052,-0.251567,0.724180,-1.213240,0.353313,0.885349,-0.104338,12.477511,0.085365,-0.501674,-1.312178
13.200000,-0.100529,0.682386,1.168522,324.072144,1.196296,-1.000000,52.224621,293.482143,-1.000000,10.035232,16.000000,20.941527,0.190000,-0.096536,0.670334,1.166921,-0.995104,0.388734,-0.533594,-2.464053,-0.311485,0.683200,-1.331998,0.244659,0.884431,-0.153918,13.502124,0.086531,-0.853966,-1.413389
13.300000,-0.019711,0.032525,0.892362,,,,,,,,,,,-0.019347,0.021637,0.886047,-0.910525,0.379358,-0.561910,-2.974493,-0.344637,0.649156,-1.437798,0.149728,1.037071,-0.147290,13.735452,0.200455,0.437968,-1.233589
13.400000,-0.127962,-0.350625,0.329879,,,,,,,,,,,-0.127027,-0.355765,0.313072,-0.600939,0.356799,-0.586542,-2.691332,-0.352291,0.635986,-1.500060,0.110825,0.965421,-0.077777,14.771108,0.438187,-0.317773,-0.479586
13.500000,0.083444,-0.647624,-0.800200,,,,,,,,,,,0.083283,-0.670788,-0.778319,-0.655955,0.344012,-0.584065,-2.800839,-0.330965,0.656304,-1.466306,0.080838,0.910207,0.040599,15.837415,-0.100865,-0.687405,0.528873
13.600000,-0.131559,-1.169594,-1.478843,,,,,,,,,,,-0.121043,-1.104525,-1.409976,-0.817827,0.335596,-0.561727,-3.049270,-0.282343,0.700972,-1.359502,0.141733,0.978699,-0.259102,15.934355,-0.548621,-0.025422,-2.206186
13.700000,0.026872,-0.962913,-1.965662,,,,,,,,,,,0.006775,-0.985173,-1.934674,-0.815285,0.324615,-0.514662,1.238974,-0.214108,0.763517,-1.183129,0.264980,0.916692,0.007225,16.533501,-0.989002,-0.034932,-0.110720
13.800000,0.620444,-1.219884,-2.306812,,,,,,,,,,,0.564969,-1.237368,-2.315173,-0.837816,0.329262,-0.448140,2.995869,-0.128304,0.820220,-0.962782,0.412471,1.056735,0.115771,14.661665,-1.347178,2.178021,0.554829
13.900000,1.129273,-1.443493,-2.370213,,,,,,,,,,,1.108897,-1.399932,-2.363715,-0.897115,0.352895,-0.374951,2.830653,-0.018987,0.855910,-0.715896,0.696170,0.611346,0.234334,8.248540,-0.087208,-0.901919,0.070491
14.000000,0.779208,-1.525440,-1.891421,,,,,,,,,,,0.849318,-1.509901,-1.966128,-0.921987,0.371343,-0.305565,2.668028,0.102783,0.869961,-0.473476,0.875990,0.209949,0.382976,284.116015,1.283791,-2.788524,-0.007704
14.100000,-0.276811,-0.654000,0.172848,,,,,,,,,,,-0.164060,-0.825390,-0.029496,-0.910538,0.365241,-0.283860,2.549453,0.180326,0.867962,-0.369432,1.112764,-0.108711,0.764494,345.610502,2.961040,-4.314064,2.590777
14.200000,-0.904207,1.041629,1.194985,324.022949,1.844756,-1.000000,52.224618,293.432949,-1.000000,11.600489,16.000000,20.941523,0.380000,-0.882759,0.943445,1.151119,-0.907875,0.350409,-0.322495,2.578202,0.143191,0.867165,-0.477187,0.770164,0.458286,0.566980,350.632321,0.220889,0.323423,0.606624
14.300000,-1.136162,1.147763,1.547337,,,,,,,,,,,-1.146785,1.152704,1.541648,-0.882329,0.334563,-0.368799,2.716963,0.046846,0.865335,-0.652768,0.697839,0.667305,0.284409,145.502394,-0.340329,0.678434,-0.509085
14.400000,-0.977785,0.972614,1.775393,,,,,,,,,,,-0.990569,0.993737,1.755684,-0.827316,0.311803,-0.422603,2.865450,-0.047963,0.849012,-0.845214,0.524878,0.804947,0.165677,10.511582,-1.222234,0.662238,-0.224526
14.500000,-0.509360,1.139808,1.766330,,,,,,,,,,,-0.544493,1.081067,1.767298,-0.764841,0.294587,-0.479358,3.013955,-0.132632,0.815402,-1.036499,0.406085,0.818079,0.139568,16.117029,-1.148940,-0.337800,0.575996
14.600000,-0.256265,1.575808,1.498213,,,,,,,,,,,-0.262444,1.555550,1.536772,-0.689715,0.300223,-0.520721,-1.805924,-0.220945,0.767415,-1.201732,0.379184,0.895027,-0.000055,19.117496,0.346358,-0.450549,0.043860
14.700000,0.053742,1.212085,1.009946,,,,,,,,,,,0.011319,1.263089,1.062735,-0.565374,0.317782,-0.544810,-2.799076,-0.297610,0.716329,-1.325628,0.293474,0.917703,-0.089925,19.740729,0.479693,-0.264609,-0.036491
14.800000,0.140334,0.902296,0.323781,,,,,,,,,,,0.143888,0.902780,0.353322,-0.504110,0.338009,-0.553645,-2.645285,-0.337413,0.682080,-1.388884,0.223686,1.013223,-0.071526,18.757552,0.611483,0.240279,0.179442
14.900000,-0.107369,0.706435,0.079048,,,,,,,,,,,-0.108616,0.696801,0.081043,-0.471205,0.356758,-0.545165,-2.537638,-0.364742,0.665111,-1.400471,0.287376,0.963026,-0.141711,17.860482,1.440564,-0.210564,-0.426990
15.000000,-0.076420,0.064974,0.349113,,,,,,,,,,,-0.073845,0.051249,0.350478,-0.315414,0.358968,-0.542738,-2.343169,-0.386088,0.653820,-1.408654,0.349734,0.931441,-0.222879,18.050962,2.317851,-0.554994,-1.056487
15.100000,-0.078079,-0.513651,0.315013,,,,,,,,,,,-0.078294,-0.521276,0.318135,-0.137143,0.342735,-0.556299,-2.196427,-0.383736,0.652476,-1.422644,0.231429,0.946478,-0.178587,18.983680,1.459331,-0.420172,-0.590377
15.200000,-0.125682,-0.392213,0.448878,320.298706,1.755313,-1.000000,52.224611,289.708706,-1.000000,10.470228,16.000000,20.941514,0.550000,-0.123211,-0.397115,0.447956,0.148346,0.317052,-0.575967,-1.965117,-0.376680,0.652514,-1.432996,0.102806,0.992146,0.000880,20.489013,0.513476,0.048165,1.246213
15.300000,-0.009751,-0.296930,-0.067746,,,,,,,,,,,-0.007637,-0.295697,-0.081039,0.367213,0.297161,-0.590436,-1.789837,-0.369693,0.652977,-1.435154,0.123334,1.121588,-0.059711,21.590086,0.889089,1.280045,0.687056
15.400000,0.189430,-0.455581,-0.893931,,,,,,,,,,,0.190629,-0.462709,-0.899922,0.013528,0.300021,-0.580001,-2.173114,-0.348014,0.672458,-1.420841,0.206705,1.101093,-0.025859,21.394672,1.198718,1.081801,0.924374
15.500000,0.059589,0.176991,-0.225897,,,,,,,,,,,0.064586,0.177434,-0.205468,-0.346712,0.309079,-0.559001,-2.552365,-0.325734,0.697027,-1.373787,0.093378,0.818283,-0.006299,21.130498,-0.672579,-1.554760,0.987720
15.600000,0.344245,0.489857,0.523131,,,,,,,,,,,0.340198,0.491894,0.530015,-0.376646,0.320392,-0.569767,-2.555734,-0.332190,0.679892,-1.413902,0.199760,0.945284,0.006668,19.537067,0.710864,-0.474985,0.969223
15.700000,0.203331,0.493955,0.394651,,,,,,,,,,,0.211073,0.483521,0.386006,-0.252912,0.333874,-0.579619,-2.378235,-0.353171,0.654042,-1.461976,0.139838,1.048927,-0.005768,17.972952,0.582943,0.593060,0.642308
15.800000,0.168653,0.331585,0.539693,,,,,,,,,,,0.165479,0.323506,0.537499,0.005068,0.344709,-0.593269,-2.085651,-0.364317,0.629601,-1.511325,0.075208,0.999634,-0.165669,16.612681,0.426441,-0.012063,-1.138036
15.900000,0.037137,0.135332,0.310002,,,,,,,,,,,0.039365,0.129031,0.307006,0.760683,0.342520,-0.605180,-1.318555,-0.373653,0.613839,-1.524227,0.070195,1.023442,-0.009276,16.050674,0.799951,0.204483,0.331168
16.000000,0.102029,0.250127,0.092044,,,,,,,,,,,0.103096,0.252192,0.092203,1.211629,0.344176,-0.610583,-0.856693,-0.378611,0.604462,-1.521157,0.089091,1.059641,-0.024628,15.593201,1.211462,0.653077,0.140699
16.100000,0.228486,0.261797,0.061640,,,,,,,,,,,0.230638,0.252388,0.057621,1.614742,0.353637,-0.613105,-0.432512,-0.381919,0.594273,-1.522123,0.024455,0.988745,0.020868,14.201106,0.664139,-0.125034,0.402939
16.200000,0.114830,0.250876,-0.334701,317.332398,1.300000,42.709040,52.224615,286.742398,311.132797,10.363863,16.000000,20.941475,1.760000,0.115324,0.242925,-0.338152,2.055521,0.367874,-0.608659,0.025609,-0.378262,0.592521,-1.543500,0.075607,1.008521,-0.060599,12.408184,0.997645,0.097378,-0.591088
16.300000,0.226798,-0.006818,-0.280297,,,,,,,,,,,0.228884,-0.008911,-0.276213,-1.785958,0.381061,-0.600283,1.844419,-0.368371,0.598937,-1.551594,0.045572,0.987749,-0.034171,11.481468,0.371618,-0.112004,-0.497997
16.400000,0.160440,0.094061,-0.201096,,,,,,,,,,,0.159423,0.090125,-0.202887,-2.058303,0.391250,-0.597915,2.202007,-0.358989,0.600444,-1.524981,0.076663,0.987381,-0.031039,9.968350,0.480086,-0.108422,-0.658054
16.500000,-0.125345,0.010394,-0.475278,,,,,,,,,,,-0.126681,0.000571,-0.481243,-1.724268,0.398810,-0.588001,2.538399,-0.352539,0.608991,-1.498083,0.171490,1.050574,-0.086284,9.512349,1.077798,0.506791,-1.239356
16.600000,-0.136037,-0.380778,-0.647799,,,,,,,,,,,-0.137355,-0.389402,-0.646215,-1.310859,0.398274,-0.570156,2.929448,-0.338702,0.633610,-1.447447,0.151183,1.021678,-0.080965,10.308216,0.309084,0.239254,-1.008292
16.700000,-0.123291,-0.169449,0.121676,,,,,,,,,,,-0.111259,-0.175108,0.131332,-1.101267,0.387538,-0.561979,0.594993,-0.330173,0.651883,-1.419647,0.096239,0.816118,-0.026807,11.869746,-0.517784,-1.621802,-0.346831
16.800000,-0.127901,-0.532756,0.330882,,,,,,,,,,,-0.131509,-0.535177,0.328673,-1.139647,0.373285,-0.578989,3.032865,-0.322485,0.649106,-1.448183,0.187361,0.986612,-0.205090,12.029917,0.638560,-0.036185,-2.152486
16.900000,-0.151388,-0.201419,0.017489,,,,,,,,,,,-0.143967,-0.205017,0.024400,-1.003895,0.351794,-0.587145,0.601719,-0.310917,0.659363,-1.453044,0.151009,1.119591,0.129985,13.460812,0.354601,1.296353,1.186969
17.000000,0.154965,-0.214651,0.452406,,,,,,,,,,,0.148822,-0.216564,0.447132,-1.120282,0.344012,-0.603115,2.356226,-0.310517,0.649171,-1.489865,0.109132,1.009746,-0.035492,13.511972,0.243770,0.053858,-0.423608
17.100000,0.042003,0.149054,-0.023282,,,,,,,,,,,0.044132,0.152991,-0.027606,-1.177644,0.340140,-0.610592,2.924355,-0.312874,0.643108,-1.510747,0.120049,1.028590,0.006804,13.567712,0.626573,0.283493,-0.034786
17.200000,-0.011783,0.267179,0.000395,314.577882,1.390000,29.250941,52.224632,283.987881,327.304669,10.462675,16.000000,20.941446,2.970000,-0.010044,0.263711,0.000413,-1.162349,0.346476,-0.606096,2.958858,-0.318512,0.641207,-1.507304,0.050346,0.977368,0.011812,13.022181,-0.115655,-0.209619,0.002257
17.300000,0.026924,0.152502,0.025578,,,,,,,,,,,0.027576,0.142704,0.026734,-1.167725,0.353099,-0.602326,2.974842,-0.325168,0.637798,-1.506924,0.091893,0.998409,-0.056346,12.504302,0.286029,0.003884,-0.634397
17.400000,-0.064369,-0.049639,0.125512,,,,,,,,,,,-0.061104,-0.059269,0.126197,-1.133287,0.351529,-0.603906,3.011548,-0.328226,0.635599,-1.515119,0.099818,0.956602,-0.085582,12.434730,0.442452,-0.398301,-0.922488
17.500000,-0.082620,-0.230643,0.039054,,,,,,,,,,,-0.082845,-0.234623,0.035606,-1.044315,0.341964,-0.609664,1.823325,-0.325099,0.636919,-1.525370,0.104033,1.015956,-0.033051,12.318983,0.578194,0.164923,-0.371585
17.600000,-0.042677,-0.135179,-0.113957,,,,,,,,,,,-0.039787,-0.137061,-0.117253,-0.889486,0.333214,-0.610942,-3.071795,-0.319184,0.643294,-1.520902,0.100078,1.117513,0.018867,11.786202,0.496021,1.162743,0.217475
17.700000,0.125709,-0.148961,-0.059353,,,,,,,,,,,0.127726,-0.154238,-0.057032,-0.937972,0.333282,-0.608759,-0.615548,-0.313644,0.648039,-1.508548,0.040318,0.874783,-0.013570,10.089742,-0.216831,-1.226234,-0.107664
17.800000,0.101160,-0.134282,-0.209505,,,,,,,,,,,0.099907,-0.130497,-0.213426,-1.104443,0.333494,-0.610699,2.972207,-0.303457,0.650937,-1.499697,0.158328,1.137280,-0.016695,6.324343,0.859519,1.367702,-0.268660
17.900000,0.192438,0.241788,0.077732,,,,,,,,,,,0.200560,0.231751,0.085497,-1.181678,0.341934,-0.605169,2.905197,-0.301234,0.652754,-1.481935,0.066444,0.803264,0.036024,109.085393,-0.165065,-1.851327,0.132220
18.000000,0.287998,0.069693,0.137594,,,,,,,,,,,0.285191,0.065414,0.130886,-1.629319,0.352170,-0.615180,2.469352,-0.298481,0.639074,-1.487141,0.121028,1.103784,-0.050264,354.459962,0.523429,0.993205,-0.999570
18.100000,0.247926,0.148800,-0.015201,,,,,,,,,,,0.250660,0.140867,-0.011581,-1.778361,0.364117,-0.614572,2.337409,-0.296998,0.633629,-1.471948,-0.001431,0.878438,-0.007547,351.831224,-0.660265,-1.106758,-0.751973
18.200000,0.098239,-0.159950,-0.018134,313.712647,2.310000,57.377366,52.224631,283.122647,328.007800,11.825962,16.000000,20.941430,2.070000,0.097783,-0.167233,-0.023000,-1.940732,0.369605,-0.619446,2.173867,-0.290542,0.628692,-1.458149,0.061371,1.065767,-0.109151,353.627783,-0.040106,0.699006,-1.995311
18.300000,0.163483,-0.355048,-0.013850,,,,,,,,,,,0.169026,-0.363589,-0.010631,-1.922212,0.366065,-0.622652,2.166269,-0.277456,0.633472,-1.444427,-0.025720,0.948070,-0.010696,109.506770,-0.927764,-0.403679,-1.149290
18.400000,0.313078,-0.318208,0.001763,,,,,,,,,,,0.311887,-0.320731,-0.003913,-2.059951,0.361333,-0.635309,1.991652,-0.258511,0.631632,-1.425074,-0.001019,1.061885,0.040971,9.056830,-0.611668,0.655684,-0.884734
18.500000,0.133752,-0.153491,-0.250781,,,,,,,,,,,0.134584,-0.160916,-0.246617,-2.005908,0.365006,-0.634498,2.029704,-0.244071,0.636072,-1.399464,-0.043051,1.023540,-0.100612,13.558765,-1.128205,0.423734,-2.455784
18.600000,0.175708,-0.530123,-0.148395,,,,,,,,,,,0.178725,-0.531034,-0.153194,-1.968981,0.358373,-0.639174,2.023768,-0.222765,0.642892,-1.378646,-0.031039,0.965857,-0.007402,15.411478,-1.146838,-0.193992,-1.802034
18.700000,0.082293,-0.205472,-0.463596,,,,,,,,,,,0.084303,-0.209639,-0.461369,-1.845320,0.354803,-0.635358,2.107451,-0.199750,0.656104,-1.348831,0.059993,1.015276,0.045525,14.708861,-0.510124,0.442601,-1.387520
18.800000,0.126883,-0.441781,-0.115188,,,,,,,,,,,0.125433,-0.449855,-0.115223,-1.773770,0.352720,-0.632512,2.150494,-0.182624,0.664914,-1.325296,0.054962,1.024544,-0.092155,12.701121,-0.779048,0.494511,-2.879246
18.900000,-0.152966,-0.701790,-0.238079,,,,,,,,,,,-0.151072,-0.717482,-0.235713,-1.694407,0.335711,-0.634590,2.172282,-0.161784,0.676970,-1.316845,0.058183,1.002847,-0.145158,11.242404,-0.802468,0.388381,-3.474027
19.000000,-0.169125,-1.242430,-0.089131,,,,,,,,,,,-0.173256,-1.243830,-0.095814,-1.639920,0.297898,-0.647702,2.119672,-0.128826,0.689067,-1.323987,0.096912,1.177315,-0.104932,11.270561,-0.333173,1.999638,-3.080892
19.100000,-0.173494,-0.888265,-0.118202,,,,,,,,,,,-0.171351,-0.889189,-0.110847,-1.509427,0.257662,-0.652899,2.143958,-0.097714,0.705410,-1.332127,0.011212,0.925217,0.014032,12.065714,-1.118932,-0.475187,-1.779229
19.200000,-0.248145,-0.517217,0.085843,313.721619,1.700000,28.569954,52.224651,283.131619,330.820296,11.059889,16.000000,20.941399,2.970000,-0.245950,-0.520192,0.083511,-1.483544,0.226517,-0.662713,2.096662,-0.079295,0.709328,-1.351967,0.064825,1.008479,-0.012468,12.866046,-0.447421,0.325056,-1.976962
19.300000,-0.460615,-0.517949,-0.125162,,,,,,,,,,,-0.460057,-0.521471,-0.121998,-1.365544,0.198152,-0.664293,2.162179,-0.071897,0.717058,-1.376686,0.036652,1.090105,-0.102010,14.173024,-0.678049,1.131061,-2.585290
19.400000,-0.339002,-0.526719,0.180451,,,,,,,,,,,-0.338319,-0.530712,0.176987,-1.276492,0.166488,-0.670561,2.198615,-0.067517,0.719708,-1.414347,0.046951,0.967970,-0.024545,16.498020,-0.447404,-0.224872,-1.486092
19.500000,-0.477340,-0.150554,-0.022029,,,,,,,,,,,-0.476949,-0.149877,-0.021774,-1.107882,0.139903,-0.673703,2.331987,-0.069840,0.722235,-1.449776,0.060100,1.040474,-0.011247,18.404705,-0.205536,0.474720,-0.955548
19.600000,-0.537291,-0.204519,0.140586,,,,,,,,,,,-0.536274,-0.211849,0.142421,-0.695211,0.118355,-0.673567,2.736462,-0.085850,0.724471,-1.484441,0.018921,0.904666,-0.070961,21.401224,-0.592280,-0.909543,-1.031254
19.700000,-0.596124,-0.148910,0.079439,,,,,,,,,,,-0.596241,-0.149431,0.076130,0.040084,0.092311,-0.676951,-2.198706,-0.101056,0.723140,-1.502372,0.091975,1.035838,-0.024858,24.105581,0.280877,0.337397,-0.041672
19.800000,-0.502909,0.170392,0.047723,,,,,,,,,,,-0.497440,0.165300,0.049438,0.637658,0.074362,-0.673923,-2.220434,-0.125170,0.724270,-1.469111,0.016063,0.933427,0.041232,27.631489,-0.417604,-0.555415,1.201432
19.900000,-0.366303,0.165272,-0.041320,,,,,,,,,,,-0.361521,0.160788,-0.046891,0.861306,0.064695,-0.672144,-1.980083,-0.146288,0.722897,-1.434707,0.015327,1.060831,0.076138,30.001879,-0.380785,0.687186,1.946992
20.000000,-0.169368,0.450217,-0.261042,,,,,,,,,,,-0.166058,0.449980,-0.260057,0.810114,0.067539,-0.661948,-2.000012,-0.164947,0.727984,-1.404146,-0.016133,1.108650,0.060034,31.652173,-0.825022,1.212875,2.073375
20.100000,-0.050274,0.618152,-0.184492,,,,,,,,,,,-0.049433,0.616908,-0.185546,0.724802,0.086049,-0.651284,-2.023111,-0.189349,0.729712,-1.387104,-0.008519,1.030435,-0.013913,32.500739,-0.887048,0.442235,1.465807
20.200000,-0.013741,0.712488,-0.304339,312.713014,0.900000,13.702588,52.224670,282.123014,319.921847,10.591574,16.000000,20.941344,3.720000,-0.015237,0.708336,-0.305219,0.614692,0.111758,-0.637637,-2.054598,-0.217446,0.730409,-1.371538,0.018506,0.987788,0.025603,32.664164,-0.725550,0.051559,1.998324
20.300000,-0.021556,0.890762,-0.469818,,,,,,,,,,,-0.020246,0.883953,-0.473172,0.475371,0.141340,-0.618291,-2.104204,-0.248407,0.731986,-1.349303,0.104753,1.045828,-0.002162,33.028733,-0.065100,0.672816,1.849754
20.400000,-0.093206,0.606933,-0.491364,,,,,,,,,,,-0.089256,0.599401,-0.494466,0.301081,0.168574,-0.592656,-2.200061,-0.272955,0.738722,-1.316138,0.068896,0.865504,-0.050572,33.303555,-0.799128,-0.989874,1.472524
20.500000,0.092302,0.407860,-1.013616,,,,,,,,,,,0.094478,0.407406,-1.011971,0.079291,0.192742,-0.558361,-2.370084,-0.281275,0.756113,-1.262403,0.138394,0.942731,0.035997,33.372559,-0.775573,-0.070069,2.418613
20.600000,0.210976,0.452143,-0.970243,,,,,,,,,,,0.213013,0.449228,-0.967708,-0.145859,0.226105,-0.517558,-2.532860,-0.285701,0.774023,-1.195652,0.247333,0.975368,-0.045560,31.496209,-0.526911,0.478612,1.606565
20.700000,0.225178,0.614396,-0.691747,,,,,,,,,,,0.226710,0.609927,-0.689701,-0.307106,0.260683,-0.482506,-2.625540,-0.291904,0.783471,-1.139330,0.367824,1.058220,-0.091449,29.488287,0.030086,1.449721,1.130566
20.800000,0.247301,0.816402,-0.175983,,,,,,,,,,,0.249943,0.811443,-0.173329,-0.402160,0.292208,-0.459548,-2.642188,-0.307798,0.780086,-1.112949,0.319843,0.998669,-0.042230,26.386499,-0.672276,0.973791,1.649749
20.900000,0.252782,0.632749,0.128064,,,,,,,,,,,0.251393,0.626022,0.131992,-0.464633,0.320747,-0.450856,-2.624916,-0.328927,0.765220,-1.122303,0.303255,0.987737,-0.096848,26.140954,-0.718351,0.849405,1.156245
21.000000,0.171714,0.437711,0.466989,,,,,,,,,,,0.174304,0.430895,0.469738,-0.461910,0.334316,-0.457294,-2.569123,-0.350140,0.745941,-1.159020,0.237650,1.022728,-0.028717,26.965158,-0.952909,1.048292,1.838230
21.100000,0.130544,0.397996,0.528951,,,,,,,,,,,0.132523,0.393414,0.528875,-0.417627,0.340232,-0.472912,-2.488370,-0.369682,0.723769,-1.211554,0.192609,1.065176,-0.011452,26.775769,-0.843707,1.261317,1.961554
21.200000,0.310915,0.513215,0.582795,310.979065,1.410000,34.357566,52.224672,280.389065,317.109355,10.980300,16.000000,20.941315,2.490000,0.313939,0.510726,0.585130,-0.357796,0.347813,-0.488687,-2.387915,-0.389633,0.698751,-1.266624,0.104959,1.058203,0.074179,25.939532,-1.103386,1.013683,2.732697
21.300000,0.382392,0.658810,0.581417,,,,,,,,,,,0.386044,0.652428,0.575383,-0.263823,0.361421,-0.506277,-2.236255,-0.413499,0.664742,-1.334156,0.087099,1.056737,0.057715,23.494711,-0.597806,0.821404,2.361812
21.400000,0.362301,0.464895,0.410522,,,,,,,,,,,0.361344,0.456753,0.413584,-0.188526,0.379500,-0.518568,-2.103990,-0.430933,0.633440,-1.392411,0.148543,1.108424,-0.044788,21.245868,0.599141,1.246071,1.087339
21.500000,0.419057,0.113075,0.347505,,,,,,,,,,,0.422050,0.107855,0.346045,-0.045402,0.389617,-0.534491,-1.933869,-0.437969,0.608799,-1.445247,0.021132,1.005319,0.011398,18.968769,-0.229155,0.138608,1.230384
21.600000,0.448850,0.062857,0.050653,,,,,,,,,,,0.450829,0.056332,0.046551,0.004967,0.400761,-0.548837,-1.874276,-0.433130,0.592049,-1.494329,0.016907,1.000206,0.001953,17.232413,-0.051745,0.044564,0.724240
21.700000,0.163188,0.067190,-0.134795,,,,,,,,,,,0.161754,0.058947,-0.132645,-0.425099,0.414912,-0.552412,-2.299341,-0.422193,0.586882,-1.520612,0.068665,0.923535,-0.051944,15.378532,0.344799,-0.731905,-0.129502
21.800000,0.279239,-0.123393,-0.095328,,,,,,,,,,,0.278659,-0.123136,-0.096967,-0.895183,0.420657,-0.556399,-2.775878,-0.412828,0.585670,-1.526895,0.172548,1.048094,0.002251,14.790101,1.271020,0.434073,0.182610
21.900000,0.255303,-0.049926,0.011191,,,,,,,,,,,0.258807,-0.057752,0.016357,-1.373817,0.428173,-0.558433,0.512958,-0.403845,0.584554,-1.519597,0.069505,0.887885,-0.026285,14.762183,0.211704,-1.055210,-0.314195
22.000000,0.263688,-0.243228,0.285862,,,,,,,,,,,0.267416,-0.254642,0.283313,-2.064064,0.424296,-0.574640,2.311657,-0.393813,0.578463,-1.526019,0.053157,0.876334,-0.030627,14.865729,0.234673,-1.233871,-0.629610
22.100000,0.070883,-0.160205,0.014075,,,,,,,,,,,0.069434,-0.161173,0.012149,-2.534050,0.415411,-0.591141,1.802647,-0.379962,0.577581,-1.517100,0.075752,1.117480,-0.037877,16.015724,0.625596,1.188852,-0.870295
22.200000,0.002393,-0.332939,0.260538,309.334229,2.650000,49.476429,52.224678,278.744229,305.507785,12.467926,16.000000,20.941268,2.960000,0.003719,-0.344472,0.262100,-2.715589,0.404204,-0.601901,1.585897,-0.370428,0.580578,-1.513608,-0.010388,0.859714,-0.099460,17.990309,-0.116780,-1.366535,-1.541606
22.300000,-0.094897,-0.555326,0.042796,,,,,,,,,,,-0.097969,-0.557178,0.040523,-3.032054,0.384608,-0.617520,1.217282,-0.358899,0.584701,-1.511773,0.048021,1.199294,-0.036049,20.936259,0.672774,1.956348,-0.894683
22.400000,-0.042960,-0.465421,-0.033627,,,,,,,,,,,-0.039625,-0.468253,-0.031822,-3.049835,0.366644,-0.623743,1.150368,-0.347224,0.596577,-1.523552,-0.021130,0.860835,-0.038423,22.903054,-0.011888,-1.321782,-0.794769
22.500000,-0.058648,-0.199623,-0.025189,,,,,,,,,,,-0.057253,-0.202324,-0.028265,-1.232324,0.355322,-0.629589,1.050866,-0.338924,0.602068,-1.525469,0.060797,1.014406,0.064008,19.829872,0.813503,0.108229,0.224387
22.600000,-0.139319,0.034950,-0.226707,,,,,,,,,,,-0.136954,0.032944,-0.224046,-2.769722,0.351768,-0.624646,1.388124,-0.336224,0.610748,-1.540639,0.012898,1.057581,-0.012953,13.660869,0.200869,0.625557,-0.385463
22.700000,-0.145956,0.128961,0.121929,,,,,,,,,,,-0.144128,0.123015,0.122181,-1.525689,0.351084,-0.619750,1.383354,-0.341794,0.613035,-1.553801,0.028822,0.921822,-0.031154,5.302272,0.281603,-0.796053,-0.489996
22.800000,-0.132418,-0.032369,-0.004560,,,,,,,,,,,-0.131147,-0.039747,-0.004939,2.367728,0.347620,-0.618236,0.255839,-0.348741,0.612633,-1.561903,0.034354,1.018559,-0.047414,1.754045,0.421403,0.190961,-0.471088
22.900000,-0.153482,-0.151559,0.078343,,,,,,,,,,,-0.152867,-0.159256,0.079162,1.263958,0.339403,-0.618138,-0.858013,-0.350721,0.616193,-1.554476,0.000549,0.989403,-0.056017,4.663475,0.097093,-0.115745,-0.431675
23.000000,-0.164917,-0.157789,0.089149,,,,,,,,,,,-0.163036,-0.157334,0.088301,1.162177,0.327653,-0.620921,-0.975533,-0.352654,0.618646,-1.535286,0.032295,1.005453,-0.026357,10.505565,0.511301,0.078151,0.029088
23.100000,-0.092951,-0.054811,-0.004435,,,,,,,,,,,-0.092117,-0.063931,-0.005710,1.091432,0.320810,-0.621139,-1.052926,-0.355281,0.620516,-1.522014,0.031702,1.099857,0.025934,14.617600,0.537241,0.927622,0.667074
23.200000,-0.049980,0.013481,-0.049538,307.400391,2.690000,64.771025,52.224680,276.810391,312.890604,12.635804,16.000000,20.941249,2.490000,-0.047543,0.016751,-0.047180,0.920502,0.317601,-0.618659,-1.228673,-0.355452,0.624532,-1.516578,-0.003123,0.919434,-0.043616,18.279979,0.157781,-0.729332,0.089134
23.300000,0.013581,0.202341,-0.032161,,,,,,,,,,,0.015972,0.195417,-0.035919,0.914945,0.322056,-0.616094,-1.219054,-0.360402,0.621940,-1.515923,0.027846,1.035498,0.050278,19.836103,0.460831,0.360732,0.989082
23.400000,0.016985,0.181956,-0.079994,,,,,,,,,,,0.020593,0.176704,-0.077790,0.768328,0.329279,-0.611100,-1.349077,-0.363467,0.621301,-1.520276,0.006978,0.998618,-0.022417,20.273578,0.184072,0.039616,0.262547
23.500000,0.013155,0.183172,0.141390,,,,,,,,,,,0.013617,0.175753,0.142036,0.862744,0.334946,-0.610311,-1.238330,-0.367865,0.616434,-1.523234,0.022453,0.988210,-0.038817,20.001041,0.355913,-0.154878,0.043323
23.600000,0.046477,-0.029476,-0.019863,,,,,,,,,,,0.045987,-0.032553,-0.019261,0.990081,0.337115,-0.611193,-1.103868,-0.370072,0.613060,-1.524105,-0.000598,1.035233,-0.028532,19.659963,0.210916,0.366658,0.141103
23.700000,0.061566,0.255035,0.048266,,,,,,,,,,,0.063806,0.252080,0.047732,1.086446,0.341728,-0.610510,-0.994367,-0.373493,0.609084,-1.525752,0.019429,1.010376,0.012930,19.158864,0.427024,0.109630,0.504400
23.800000,0.072595,0.164299,-0.026319,,,,,,,,,,,0.074156,0.158349,-0.026515,1.199396,0.350740,-0.608111,-0.858865,-0.378232,0.603419,-1.531344,0.012663,0.976964,-0.053600,18.350341,0.377332,-0.207851,-0.230486
23.900000,0.082226,0.089681,-0.053055,,,,,,,,,,,0.083499,0.084501,-0.054169,1.303986,0.357938,-0.606479,-0.741766,-0.378657,0.600564,-1.540309,0.020520,1.045366,-0.030055,16.842357,0.423444,0.448119,-0.096022
24.000000,0.091242,0.064858,-0.088760,,,,,,,,,,,0.085033,0.062340,-0.088296,1.330178,0.363512,-0.604745,-0.711620,-0.375526,0.600932,-1.552968,0.011185,0.982947,-0.026955,15.478155,0.235531,-0.250876,-0.106341
24.100000,0.103121,0.009610,-0.048788,,,,,,,,,,,0.119184,0.016309,-0.051732,1.983262,0.369556,-0.603958,-0.052754,-0.372991,0.599615,-1.562463,0.020583,0.965152,-0.024294,14.337783,0.302460,-0.086184,-0.307321
24.200000,0.021954,-0.085738,-0.086545,297.990479,1.800000,72.275286,52.224655,267.400479,309.023421,11.134909,16.000000,20.941246,1.860000,0.019721,-0.084520,-0.086669,0.073093,0.370954,-0.603343,1.175241,-0.369530,0.601509,-1.566369,0.020493,1.022592,-0.054387,14.428994,0.166783,0.142798,-0.570424
24.300000,0.015764,0.040666,-0.072905,,,,,,,,,,,0.019498,0.018679,-0.065404,-1.857355,0.372101,-0.602098,2.383955,-0.366915,0.603647,-1.563075,0.028305,0.992043,-0.027252,15.552296,0.257026,-0.087491,-0.336206
24.400000,-0.086130,-0.019137,-0.015931,,,,,,,,,,,-0.075038,-0.014331,-0.032849,-1.317351,0.373384,-0.599080,1.669145,-0.366718,0.605974,-1.556970,-0.013860,0.985596,-0.115582,16.550588,-0.315816,-0.314798,-1.169698
24.500000,-0.079845,-0.126914,0.109726,,,,,,,,,,,-0.089629,-0.137681,0.108530,-0.239990,0.365877,-0.600815,-2.290216,-0.368091,0.607992,-1.559219,-0.061787,0.988422,-0.046603,17.557507,-0.733791,-0.021743,-0.285415
24.600000,-0.047835,-0.228397,0.030051,,,,,,,,,,,-0.044397,-0.212356,0.044268,0.631432,0.357262,-0.605909,-1.436686,-0.365856,0.609405,-1.557598,-0.074092,1.016147,-0.008755,17.158628,-0.685858,0.181732,0.086259
24.700000,-0.029090,-0.189129,-0.018598,,,,,,,,,,,-0.025549,-0.200718,-0.028984,0.577618,0.349748,-0.608604,-1.511266,-0.360699,0.614138,-1.553428,-0.101334,0.977383,-0.001331,16.064927,-0.987065,-0.272114,0.112179
24.800000,-0.039997,0.025596,-0.003348,,,,,,,,,,,-0.033285,-0.020260,0.000079,0.679020,0.345446,-0.610623,-1.420216,-0.358662,0.615766,-1.550740,-0.061717,1.060518,0.041675,15.049688,-0.582240,0.678520,0.618091
24.900000,-0.010213,0.199545,0.021879,,,,,,,,,,,-0.011011,0.196631,0.014348,0.652907,0.349114,-0.607565,-1.431726,-0.363914,0.613631,-1.548157,-0.079050,0.972781,-0.000151,14.412907,-0.743408,-0.393786,0.129866
25.000000,-0.000933,0.049321,0.002778,,,,,,,,,,,-0.004440,0.066416,0.016766,0.808665,0.352061,-0.606317,-1.262958,-0.368893,0.610205,-1.546361,-0.047589,0.999197,-0.024071,13.831682,-0.355557,0.193506,0.062881
25.100000,-0.019915,0.133103,-0.090458,,,,,,,,,,,-0.018169,0.121410,-0.093340,0.593065,0.354892,-0.603112,-1.470793,-0.370775,0.610595,-1.545809,-0.051015,1.026711,0.010135,13.771933,-0.496046,0.120977,0.343540
25.200000,0.001411,0.067466,0.071764,294.611451,0.990000,14.868931,52.224655,264.021450,338.906242,10.660339,16.000000,20.941245,1.860000,0.011538,0.070203,0.055991,0.524169,0.359154,-0.600271,-1.526616,-0.374433,0.608672,-1.546028,-0.065042,0.896901,-0.038271,13.698328,-0.591361,-0.887019,-0.199217
25.300000,-0.077824,0.086318,-0.026698,,,,,,,,,,,-0.078515,0.077221,-0.014444,0.708545,0.358394,-0.600163,-1.336795,-0.378456,0.606734,-1.540905,-0.005446,1.122911,-0.030696,14.646612,0.039501,1.253622,0.017033
25.400000,-0.009370,-0.182936,0.084133,,,,,,,,,,,-0.006316,-0.191016,0.085992,0.647093,0.356163,-0.599697,-1.401864,-0.378476,0.608488,-1.536772,-0.090891,0.837878,-0.028549,16.350556,-0.829767,-1.565692,0.049895
25.500000,-0.016052,-0.207309,0.009992,,,,,,,,,,,-0.016867,-0.206024,0.006134,0.933483,0.346849,-0.607648,-1.142206,-0.371567,0.610234,-1.535609,-0.014629,1.164272,0.000946,18.245267,-0.010457,1.585308,0.319772
25.600000,0.005119,0.062811,-0.117448,,,,,,,,,,,0.007224,0.055611,-0.114938,0.593809,0.348235,-0.603705,-1.481708,-0.370291,0.614127,-1.536069,-0.068359,0.913916,0.001895,17.763037,-0.629742,-0.818318,0.357172
25.700000,0.063683,0.024218,-0.004885,,,,,,,,,,,0.063095,0.022597,-0.006254,0.564088,0.350016,-0.603932,-1.510664,-0.369003,0.613669,-1.540607,-0.064270,1.019492,0.021997,16.291843,-0.612263,0.165278,0.512659
25.800000,-0.000631,0.267733,-0.056212,,,,,,,,,,,0.002169,0.260876,-0.054101,0.373151,0.356752,-0.599076,-1.683287,-0.373382,0.611881,-1.541076,-0.082187,0.924275,-0.002313,14.565867,-0.836370,-0.709610,0.282765
25.900000,-0.066933,0.128870,-0.024581,,,,,,,,,,,-0.065457,0.122620,-0.026232,0.342821,0.361560,-0.595683,-1.697305,-0.378427,0.609280,-1.540137,-0.020013,1.057285,-0.073201,13.834833,-0.233569,0.571356,-0.437992
26.000000,0.020777,-0.255638,0.158079,,,,,,,,,,,0.021517,-0.262204,0.161128,0.414032,0.359189,-0.596951,-1.631230,-0.377687,0.609887,-1.538435,-0.130313,0.982838,-0.030460,14.014329,-1.290135,-0.187506,0.007729
26.100000,0.099191,-0.060303,0.168278,,,,,,,,,,,0.099862,-0.061557,0.167883,1.089553,0.352875,-0.606951,-0.971815,-0.374274,0.605804,-1.539922,-0.199602,0.985902,0.028534,14.041374,-1.783657,-0.130334,0.537780
26.200000,0.046927,0.029713,0.098492,160.958924,1.530000,26.259154,52.224678,130.368924,335.742170,11.054464,4.000000,20.941214,3.660000,0.049967,0.023249,0.096884,1.501072,0.351940,-0.612311,-0.560587,-0.374995,0.600490,-1.534010,-0.172429,0.972639,0.013736,13.623217,-1.394805,-0.249563,0.327553
26.300000,0.001653,-0.098743,-0.013250,,,,,,,,,,,0.001306,-0.101169,-0.013264,1.686609,0.350583,-0.615977,-0.380097,-0.373264,0.598610,-1.530387,-0.127145,1.060350,-0.014964,15.753233,-0.871435,0.617542,-0.000125
26.400000,0.036106,-0.092286,0.118641,,,,,,,,,,,0.038854,-0.099138,0.119303,1.726419,0.347922,-0.618379,-0.347419,-0.371563,0.598740,-1.527237,-0.184154,0.941846,0.002530,18.585451,-1.416175,-0.577000,0.158149
26.500000,0.026043,0.020584,-0.037391,,,,,,,,,,,0.026164,0.017875,-0.041165,1.878459,0.345602,-0.622963,-0.203063,-0.369151,0.596826,-1.521013,-0.077759,1.045053,0.002975,19.569734,-0.290323,0.445470,0.125544
26.600000,-0.031566,0.190080,-0.128148,,,,,,,,,,,-0.031253,0.188712,-0.125902,1.797110,0.350894,-0.617452,-0.273610,-0.370524,0.598605,-1.532282,-0.051167,1.013628,0.000986,18.834680,-0.134168,0.163730,0.119394
26.700000,0.031436,0.067854,0.040079,,,,,,,,,,,0.033485,0.059447,0.039065,1.748765,0.356509,-0.613234,-0.304830,-0.375318,0.596641,-1.535265,-0.057611,0.947942,-0.023566,18.751480,-0.245358,-0.528342,-0.134242
26.800000,0.027643,0.066635,-0.044866,,,,,,,,,,,0.028985,0.061786,-0.044254,1.857281,0.358996,-0.613123,-0.192271,-0.375284,0.595284,-1.536616,-0.035608,1.002766,-0.007614,21.117010,-0.013377,0.040477,-0.006882
26.900000,0.024681,0.036045,0.020189,,,,,,,,,,,0.026096,0.030615,0.018943,1.932675,0.361418,-0.612618,-0.111863,-0.375895,0.593951,-1.537366,-0.032199,1.003665,-0.040134,24.268636,-0.006539,0.020192,-0.354984
