seconds_elapsed,gyroscope_z,gyroscope_y,gyroscope_x,location_altitude,location_speedAccuracy,location_bearingAccuracy,location_latitude,location_altitudeAboveMeanSeaLevel,location_bearing,location_horizontalAccuracy,location_verticalAccuracy,location_longitude,location_speed,gyroscopeUncalibrated_z,gyroscopeUncalibrated_y,gyroscopeUncalibrated_x,orientation_yaw,orientation_qx,orientation_qz,orientation_roll,orientation_qw,orientation_qy,orientation_pitch,accelerometerUncalibrated_z,accelerometerUncalibrated_y,accelerometerUncalibrated_x,compass_magneticBearing,accelerometer_z,accelerometer_y,accelerometer_x
0.000000,0.031317,-0.094014,0.189399,147.938971,-1.000000,-1.000000,52.223606,117.348971,-1.000000,41.243386,30.001593,20.941286,-1.000000,0.033068,-0.071085,0.205385,2.022549,0.075238,0.833584,0.076387,0.512978,0.190597,0.406011,-0.900638,-0.389170,0.059258,169.888405,0.218714,0.043596,-0.086806
0.100000,0.071905,-0.047113,-0.054398,,,,,,,,,,,0.073084,-0.049727,-0.056969,2.026823,0.078466,0.834195,0.069493,0.511651,0.190188,0.408901,-0.901105,-0.391812,0.054109,169.240633,0.196403,0.053435,-0.091518
0.200000,0.073632,-0.048925,-0.001307,,,,,,,,,,,0.074533,-0.053065,-0.007825,2.034896,0.081156,0.835958,0.060824,0.509144,0.188037,0.408268,-0.891820,-0.395331,0.048126,168.322758,0.180855,0.021716,-0.055150
0.300000,0.070890,-0.088288,-0.064436,,,,,,,,,,,0.070801,-0.093345,-0.061827,2.043854,0.083208,0.838345,0.049354,0.506931,0.182406,0.400847,-0.908966,-0.390007,0.041621,167.226689,0.064547,0.001685,-0.011228
0.400000,-0.025657,-0.123339,0.001296,,,,,,,,,,,-0.025974,-0.130776,0.010935,2.046110,0.086409,0.838825,0.038291,0.507272,0.177699,0.396058,-0.960303,-0.392281,0.034076,166.410889,-0.273311,-0.033818,-0.009779
0.500000,0.091351,-0.497032,0.225664,,,,,,,,,,,0.095691,-0.505286,0.207466,2.047709,0.103328,0.836025,0.011400,0.507704,0.180433,0.418757,-0.925975,-0.420676,0.025012,165.141202,-0.249536,-0.151819,0.175566
0.600000,0.018845,-0.204342,-0.279055,150.725354,-1.000000,-1.000000,52.223699,120.135354,-1.000000,39.263866,30.000000,20.941254,-1.000000,0.014230,-0.190772,-0.260699,2.057014,0.117011,0.837486,-0.033797,0.508541,0.162103,0.401219,-0.920593,-0.370758,-0.050345,161.500018,0.139866,0.115763,-0.172138
0.700000,-0.112209,-0.143129,-0.127436,,,,,,,,,,,-0.110765,-0.141847,-0.135351,2.048960,0.120539,0.835480,-0.045920,0.513245,0.154910,0.392607,-0.860519,-0.362965,-0.057417,160.588203,0.535212,0.229406,-0.104815
0.800000,0.066098,0.047886,0.227841,,,,,,,,,,,0.070994,0.036760,0.224352,2.045275,0.121533,0.834231,-0.045328,0.514588,0.156421,0.396368,-0.882542,-0.400859,-0.028572,160.564436,0.392263,-0.114491,0.089549
0.900000,0.100856,-0.022686,0.253136,,,,,,,,,,,0.099932,-0.022701,0.255835,2.056059,0.129134,0.834639,-0.053710,0.509935,0.163235,0.416094,-0.924799,-0.402504,-0.051576,160.395888,-0.126398,0.030942,-0.031152
1.000000,-0.037483,0.145432,0.103266,,,,,,,,,,,-0.039559,0.143022,0.081495,2.059395,0.131683,0.833829,-0.047807,0.507106,0.173831,0.437249,-0.885863,-0.433748,-0.020845,161.034344,0.084164,-0.050130,0.172058
1.100000,-0.108292,0.035679,-0.327370,,,,,,,,,,,-0.104066,0.033557,-0.299628,2.048490,0.119352,0.834820,-0.035150,0.512033,0.163090,0.405571,-0.944426,-0.381744,-0.023639,161.297311,-0.206577,0.094703,0.053672
1.200000,0.063107,-0.413663,-0.251642,,,,,,,,,,,0.065142,-0.416643,-0.258537,2.046442,0.124017,0.834161,-0.051627,0.514546,0.154750,0.396096,-0.910663,-0.399240,-0.052148,159.955380,0.253525,-0.205339,0.116723
1.300000,0.056951,0.028168,-0.200835,,,,,,,,,,,0.058798,0.023342,-0.214950,2.053431,0.128180,0.836192,-0.073640,0.513975,0.142020,0.378233,-0.912102,-0.358632,-0.073882,157.872864,0.074955,0.063347,-0.077567
1.400000,0.037416,-0.124335,-0.274128,,,,,,,,,,,0.038776,-0.131699,-0.262308,2.056076,0.120851,0.839671,-0.077847,0.514216,0.126112,0.342751,-0.973337,-0.336247,-0.062126,156.542501,-0.275638,-0.002243,0.077605
1.500000,0.000314,0.070072,-0.055776,,,,,,,,,,,0.001415,0.072362,-0.057469,2.057865,0.121388,0.840468,-0.084934,0.514160,0.120477,0.333488,-0.939334,-0.340224,-0.074982,155.654967,-0.020461,-0.105594,0.067853
1.600000,0.016366,0.110538,0.148313,,,,,,,,,,,0.018116,0.107116,0.153090,2.058521,0.117403,0.841125,-0.074596,0.513206,0.123849,0.335088,-0.951721,-0.335545,-0.081401,156.484809,-0.097854,-0.065661,-0.108037
1.700000,0.044903,0.088958,0.020995,,,,,,,,,,,0.046141,0.083575,0.015531,2.063466,0.116424,0.841896,-0.065553,0.510189,0.131761,0.347615,-0.917180,-0.337015,-0.070381,157.187833,0.205799,0.035704,-0.086237
1.800000,-0.003381,0.065835,0.045734,,,,,,,,,,,-0.003578,0.065825,0.041320,2.066610,0.114750,0.842762,-0.060401,0.508435,0.134451,0.350435,-0.935684,-0.338301,-0.068428,157.549040,0.017872,0.049078,-0.115055
1.900000,-0.029985,0.016302,0.101683,,,,,,,,,,,-0.027718,0.009187,0.105384,2.064297,0.112192,0.842457,-0.052962,0.508849,0.136920,0.352108,-0.946698,-0.344783,-0.054326,158.178477,-0.091941,0.000890,-0.045473
2.000000,-0.001716,-0.186224,-0.025025,,,,,,,,,,,-0.000885,-0.194648,-0.027775,2.063659,0.116415,0.841418,-0.059138,0.509329,0.137985,0.358421,-0.937099,-0.351317,-0.052455,158.077572,-0.022544,-0.005106,0.028373
2.100000,0.039036,-0.145719,-0.065558,151.107605,-1.000000,-1.000000,52.223657,120.517605,314.296875,32.129327,64.000000,20.941242,6.140000,0.040564,-0.140510,-0.068053,2.066045,0.124585,0.841001,-0.080962,0.509897,0.131125,0.355013,-0.918887,-0.347708,-0.075510,156.350656,0.153657,-0.001044,0.003168
2.200000,0.161564,-0.337800,-0.234517,,,,,,,,,,,0.175619,-0.383953,-0.216859,2.071031,0.123537,0.843274,-0.090333,0.508849,0.121024,0.336128,-0.834099,-0.330240,-0.126724,155.240157,1.039356,-0.004150,-0.407461
2.300000,1.174084,-2.247286,0.581469,,,,,,,,,,,1.204067,-2.302449,0.552073,2.147495,0.187983,0.847488,-0.238802,0.484405,0.101356,0.360751,-0.426733,-0.272156,-0.207414,146.303082,4.701861,0.792103,0.126158
2.400000,1.377971,-2.868348,0.093720,,,,,,,,,,,1.362685,-2.777283,0.049664,2.300694,0.331374,0.838981,-0.603508,0.428213,0.023413,0.327728,-0.638300,-0.154454,-0.684520,122.166195,1.342589,1.641786,-1.468009
2.500000,0.554371,0.435723,-1.091494,,,,,,,,,,,0.536810,0.435573,-1.047580,2.337275,0.346114,0.848197,-0.688183,0.398149,-0.043408,0.203412,-1.163655,-0.162062,-0.698714,98.687059,-3.997606,0.390594,-0.757342
2.600000,0.037434,1.508712,-0.587355,,,,,,,,,,,0.033271,1.529172,-0.579183,2.319973,0.299772,0.863990,-0.606135,0.399632,-0.056856,0.141644,-1.133914,-0.263351,-0.603752,93.637981,-3.151973,-1.198357,-0.398877
2.700000,0.133378,0.461800,0.026109,,,,,,,,,,,0.139081,0.440870,0.034497,2.307773,0.245731,0.879352,-0.492468,0.405224,-0.046029,0.118497,-0.907861,-0.179459,-0.403416,97.582070,-0.322804,-0.600543,0.647679
2.800000,0.354141,-0.212949,-0.236669,,,,,,,,,,,0.361212,-0.254062,-0.243807,2.325846,0.234414,0.886507,-0.472853,0.396062,-0.047269,0.102042,-0.804504,-0.156592,-0.428398,99.560389,0.794775,-0.536756,0.241438
2.900000,0.667298,-1.048151,-0.172263,,,,,,,,,,,0.675775,-1.058974,-0.162275,2.355914,0.258277,0.886616,-0.545230,0.374867,-0.079848,0.051899,-0.818813,-0.007414,-0.496304,97.260210,0.339117,0.435948,0.209427
3.000000,0.464533,-0.171031,-0.243470,,,,,,,,,,,0.456115,-0.144434,-0.253755,2.405490,0.290048,0.886754,-0.628362,0.343605,-0.106767,0.009958,-0.854070,-0.050334,-0.676256,96.068867,-0.443508,-0.395968,-0.868299
3.100000,0.145344,-0.302241,0.020894,151.820557,4.670000,45.508287,52.223662,121.230556,314.296875,23.511452,64.000000,20.941221,6.140000,0.137195,-0.310182,0.017432,2.423416,0.291736,0.889548,-0.641227,0.330579,-0.119514,-0.019769,-0.840404,-0.054912,-0.636165,94.504281,-0.384714,-0.732359,-0.373888
3.200000,0.037283,-0.834127,0.117528,,,,,,,,,,,0.042536,-0.864274,0.121453,2.428038,0.312392,0.883287,-0.688028,0.325320,-0.127411,-0.021882,-0.729576,0.005745,-0.612723,94.391995,0.416955,-0.158231,0.215358
3.300000,1.095637,-3.467221,1.012461,,,,,,,,,,,1.135278,-3.582862,1.077797,2.481794,0.393744,0.858643,-0.870334,0.286958,-0.149510,-0.033063,-0.385748,0.215936,-0.417088,93.951338,2.504814,1.793450,3.366353
3.400000,3.388405,-5.624858,2.440397,,,,,,,,,,,3.439518,-5.601804,2.478278,2.732609,0.598749,0.765978,-1.354624,0.109326,-0.180748,-0.154118,-0.138966,0.678461,-0.527406,86.042167,0.703845,5.154327,4.146294
3.500000,3.153984,-2.327424,3.068450,,,,,,,,,,,3.095184,-2.237704,3.032749,1.798558,0.707788,0.654268,-1.667870,-0.159639,-0.201171,-0.514761,0.075685,0.696373,-1.440913,57.596495,-0.071331,2.026222,-5.681516
3.600000,-0.654037,-0.141365,1.169287,,,,,,,,,,,-0.731012,-0.139854,1.117016,-2.980281,0.700076,0.629153,-1.621401,-0.290517,-0.171020,-0.671127,0.402295,0.138785,-1.534749,42.098518,3.559739,-4.735685,-7.385893
3.700000,-1.162120,-1.276210,0.265647,,,,,,,,,,,-1.130985,-1.261145,0.237810,-2.883923,0.724164,0.623096,-1.648298,-0.279752,-0.090665,-0.545484,0.370023,0.342598,-0.760310,46.542133,2.974607,-1.725431,0.892378
3.800000,0.118729,-0.450810,0.109456,,,,,,,,,,,0.165289,-0.443195,0.109298,-2.878454,0.750660,0.602873,-1.722812,-0.263681,-0.058532,-0.485364,0.051476,0.512500,-0.707646,50.845957,-0.808524,0.450981,1.633454
3.900000,1.474358,0.840518,-0.689293,,,,,,,,,,,1.488338,0.789550,-0.672151,-2.940961,0.738130,0.604273,-1.710473,-0.276238,-0.113048,-0.576565,0.197137,0.781071,-1.148773,46.446776,0.786214,2.317724,-3.132698
4.000000,2.041348,-1.379586,0.730183,,,,,,,,,,,2.010314,-1.308467,0.733437,-2.970409,0.742476,0.549480,-1.798207,-0.341050,-0.169312,-0.766846,0.023352,0.677972,-0.667885,33.669991,-1.341531,-0.138463,0.311291
4.100000,2.146191,0.347430,0.276607,148.419006,1.250000,51.612857,52.223576,117.829006,314.296875,11.682242,3.000000,20.941317,6.140000,2.212562,0.275542,0.279779,-2.938596,0.710866,0.531593,-1.754250,-0.403720,-0.218307,-0.939369,0.233830,0.733376,-0.507031,23.748476,1.238172,-0.705032,0.701782
4.200000,1.907016,0.027850,0.482468,,,,,,,,,,,1.865523,0.099468,0.471729,-2.968342,0.685778,0.466848,-1.830180,-0.482133,-0.280219,-1.177466,0.004695,0.753505,-0.327367,10.151900,-0.917658,-1.654634,0.416539
4.300000,2.187110,-0.573733,-0.041111,,,,,,,,,,,2.201423,-0.595266,-0.001011,1.129719,0.650289,0.417785,-2.113358,-0.527994,-0.350075,-1.369000,0.093933,0.898567,-0.272925,179.597754,0.023307,-0.780710,-0.975110
4.400000,2.445918,-0.551651,0.701061,,,,,,,,,,,2.444870,-0.629442,0.643158,1.254454,0.592625,0.354210,0.501117,-0.599448,-0.402860,-1.474554,0.084898,0.861378,0.204712,346.282291,0.554680,-1.304938,1.390017
4.500000,0.164303,-1.018348,-0.838703,,,,,,,,,,,0.120525,-0.956143,-0.838563,0.650112,0.585685,0.264167,1.643483,-0.649858,-0.405510,-1.349718,0.069556,1.359389,0.003354,334.356280,0.531755,3.764522,-2.103753
4.600000,-0.747284,0.107314,-0.288977,,,,,,,,,,,-0.798282,0.083025,-0.252289,1.048800,0.621298,0.253313,2.004157,-0.628322,-0.393571,-1.371132,0.000276,1.246571,0.167795,335.160843,-0.800833,2.614040,-0.117734
4.700000,-0.067065,-0.985581,-0.115071,,,,,,,,,,,-0.012241,-0.981609,-0.138346,1.244945,0.641837,0.258683,2.138985,-0.630444,-0.351234,-1.438639,0.079457,0.885172,0.168176,338.319942,0.084460,-1.039962,0.562575
4.800000,-0.308636,-0.114320,-0.358072,,,,,,,,,,,-0.316896,-0.094591,-0.356519,1.484480,0.660743,0.238801,2.328004,-0.625905,-0.338502,-1.420724,0.114882,0.971951,0.198547,337.389645,0.122447,-0.164829,0.886136
4.900000,-0.535566,0.906633,0.104626,,,,,,,,,,,-0.525992,0.945743,0.138585,1.847779,0.674037,0.255554,2.711108,-0.606877,-0.334486,-1.423244,0.015805,0.960275,0.044342,339.725714,-1.143963,-0.282704,-0.168276
5.000000,-0.772704,-0.188614,0.047224,,,,,,,,,,,-0.778253,-0.248523,0.004919,2.285312,0.666327,0.302433,-0.553279,-0.595344,-0.331580,-1.459653,0.260291,1.082062,-0.086319,344.871972,1.492288,0.865320,-0.765789
5.100000,0.001649,-0.045490,0.089350,149.786133,0.980000,50.512780,52.223516,119.196133,314.296875,7.869310,3.000000,20.941317,0.600000,0.026013,-0.060881,0.109296,2.678823,0.679243,0.309549,-2.694922,-0.588646,-0.310309,-1.442567,0.107657,0.934526,0.068730,347.153185,-0.075302,-0.561444,1.215290
5.200000,0.203961,0.018895,-0.006484,,,,,,,,,,,0.181728,0.068235,0.006134,2.530969,0.680356,0.292679,-2.874553,-0.597561,-0.307118,-1.451436,-0.055588,1.049307,0.041267,345.532807,-1.667461,0.553410,0.710483
5.300000,0.443271,1.643713,0.038411,,,,,,,,,,,0.460015,1.656656,0.046064,2.434483,0.661550,0.319869,-2.881785,-0.588374,-0.336359,-1.462960,0.422012,0.897922,-0.000667,346.583501,3.131098,-0.944035,0.262990
5.400000,0.389555,-1.705517,0.210352,,,,,,,,,,,0.395638,-1.765251,0.185241,2.033725,0.641140,0.319691,-0.123064,-0.603545,-0.348056,-1.502149,-0.018985,1.085402,-0.362332,345.494558,-0.825332,0.861785,-3.653062
5.500000,0.498776,-0.277825,0.130087,,,,,,,,,,,0.463333,-0.247346,0.106709,1.333142,0.647050,0.261894,2.197617,-0.635447,-0.329765,-1.470910,0.039302,0.950012,0.132230,339.892746,-0.153300,-0.440423,0.511140
5.600000,0.715120,-0.954159,0.153179,,,,,,,,,,,0.771889,-0.983387,0.177008,1.180488,0.646399,0.232400,1.999301,-0.647453,-0.329059,-1.431824,0.075432,1.213269,0.263278,336.706040,0.226871,2.188594,1.352342
5.700000,0.438643,0.410003,-0.191246,,,,,,,,,,,0.425113,0.410034,-0.189571,0.990480,0.634790,0.202810,1.791475,-0.660539,-0.345597,-1.365145,0.017160,0.886002,0.115215,332.665321,-0.273566,-0.910515,-0.821643
5.800000,-0.327000,3.692184,0.557693,,,,,,,,,,,-0.354997,3.672395,0.569298,0.742800,0.580187,0.295732,1.834094,-0.619840,-0.432986,-1.367343,0.069872,0.908340,-0.065608,336.422920,0.176175,-0.696029,-2.549399
5.900000,-0.680968,-0.238135,0.129891,,,,,,,,,,,-0.670273,-0.262847,0.120603,0.878720,0.579424,0.342004,2.064326,-0.590232,-0.445900,-1.422798,0.093245,0.924055,0.171536,341.705242,0.235093,-0.636049,0.407118
6.000000,-1.438283,-0.693812,-0.143134,,,,,,,,,,,-1.470626,-0.694940,-0.141490,1.602693,0.610002,0.355514,1.480787,-0.581368,-0.403693,-1.482412,0.093463,0.891574,-0.032376,345.909279,0.218939,-1.024028,-0.667571
6.100000,-1.318249,-0.456615,0.026544,148.861694,1.180000,57.791842,52.223504,118.271694,167.695312,6.905271,3.000000,20.941319,1.260000,-1.380197,-0.381887,0.028731,1.091367,0.648664,0.380948,-2.229310,-0.562246,-0.342906,-1.434935,0.077382,0.972418,-0.164960,352.727364,0.000595,-0.175843,-0.552895
6.200000,0.159493,-0.064957,-0.068142,,,,,,,,,,,0.102622,-0.178442,-0.073567,-2.465333,0.664632,0.383628,-2.054561,-0.558048,-0.315694,-1.391726,0.182199,1.192836,-0.055292,355.282488,0.974682,2.047913,1.003245
6.300000,0.571136,-0.488688,-0.042712,,,,,,,,,,,0.528982,-0.537735,-0.045095,3.030729,0.668921,0.360538,-2.248484,-0.566901,-0.317779,-1.413553,0.049345,0.911804,-0.044702,352.812375,-0.466433,-0.743423,0.757887
6.400000,0.580813,0.163828,0.165676,,,,,,,,,,,0.646326,0.206678,0.165060,2.643191,0.656889,0.339989,-2.637308,-0.581467,-0.338690,-1.463337,0.125478,1.017056,-0.214990,348.799485,0.322851,0.224714,-1.590766
6.500000,0.134080,-0.039017,0.230243,,,,,,,,,,,0.120853,-0.031957,0.213396,2.494205,0.646471,0.337183,-2.781259,-0.591010,-0.345072,-1.491527,0.087111,1.005415,-0.075060,347.409611,0.128475,0.084182,-0.460733
6.600000,0.276002,-0.052178,0.330475,,,,,,,,,,,0.269865,-0.054968,0.327602,2.241659,0.634996,0.333875,-1.154319,-0.604987,-0.345344,-1.524804,0.069160,1.003822,-0.043251,346.226303,0.236961,0.048311,-0.363711
6.700000,0.288258,-0.101766,0.356465,,,,,,,,,,,0.285243,-0.114526,0.355530,1.089491,0.621125,0.328670,2.084642,-0.621481,-0.346263,-1.543000,0.051595,1.011975,-0.009558,344.780438,0.393978,0.121292,-0.310324
6.800000,0.333760,-0.145954,0.347081,,,,,,,,,,,0.345859,-0.143835,0.357528,0.179959,0.605503,0.321483,1.166030,-0.639667,-0.347540,-1.509746,0.015544,1.000735,-0.015364,342.986036,0.398840,0.026323,-0.692747
6.900000,0.127864,0.236669,0.114125,,,,,,,,,,,0.142569,0.174020,0.127934,0.036530,0.594656,0.316783,1.018987,-0.650994,-0.349598,-1.478558,-0.022154,0.997749,0.070480,341.692252,0.256386,0.019731,-0.077931
7.000000,0.191456,0.576160,-0.116290,,,,,,,,,,,0.178575,0.564539,-0.099541,0.083427,0.583936,0.327688,1.115555,-0.644401,-0.369204,-1.466811,0.004405,1.002797,0.131264,341.673328,0.487367,0.080465,0.374264
7.100000,0.090588,0.600728,-0.306220,147.698425,1.160000,57.882165,52.223524,117.108425,16.171875,7.007458,3.000000,20.941269,1.260000,0.107340,0.613217,-0.298411,0.338754,0.576849,0.336953,1.436260,-0.627705,-0.399501,-1.456240,-0.013441,0.998216,0.029193,341.637936,0.017023,0.046788,-0.819049
7.200000,0.009807,0.468759,-0.274043,,,,,,,,,,,0.011084,0.508029,-0.292677,0.612283,0.576183,0.345892,1.765305,-0.607324,-0.423617,-1.451947,0.016974,0.979401,0.088522,342.389185,-0.058622,-0.132822,-0.268300
7.300000,0.086017,-0.162816,-0.048649,,,,,,,,,,,0.091702,-0.125982,-0.050985,0.684747,0.575669,0.345659,1.850934,-0.602475,-0.431443,-1.443593,0.060286,0.978160,-0.035223,342.365821,0.247207,-0.134897,-1.540841
7.400000,0.023091,-0.877990,-0.291228,,,,,,,,,,,0.032556,-0.826149,-0.232993,0.744640,0.584847,0.329971,1.867600,-0.609460,-0.421267,-1.436806,0.141473,1.067082,-0.005754,341.312596,1.003254,0.745821,-1.307853
7.500000,-0.485787,-1.436662,-1.226094,,,,,,,,,,,-0.452114,-1.356880,-1.157916,1.254700,0.628230,0.287117,2.261656,-0.606420,-0.392978,-1.414132,0.318944,1.176039,-0.034163,339.274868,2.155217,1.847199,-1.477780
7.600000,-0.500408,-0.678999,-1.754585,146.764404,0.720000,-1.000000,52.223536,116.174404,-1.000000,7.027330,3.000000,20.941283,0.170000,-0.512875,-0.787905,-1.729176,1.928687,0.699922,0.236006,2.804074,-0.570281,-0.358439,-1.316287,0.270023,1.063844,0.219743,338.246611,0.319731,0.950388,1.381557
7.700000,0.005526,-0.056381,-1.755165,,,,,,,,,,,-0.049358,-0.152786,-1.786921,2.164235,0.759321,0.196779,2.987348,-0.507243,-0.356056,-1.145692,0.366614,0.891737,0.320866,336.574341,-0.396824,-0.177966,2.534694
7.800000,0.317298,0.527899,-1.262285,,,,,,,,,,,0.331235,0.485741,-1.319536,2.161318,0.788774,0.174681,3.017200,-0.443651,-0.387399,-0.989193,0.394469,0.793286,0.182462,333.700702,-1.473691,-0.408938,1.123757
7.900000,0.058244,0.335417,-0.360163,,,,,,,,,,,0.088204,0.376473,-0.421403,2.140880,0.797438,0.175472,3.055294,-0.401791,-0.414505,-0.904829,0.486308,0.575545,-0.086510,333.389188,-1.266694,-2.066547,-1.369953
8.000000,-0.493817,0.202640,-0.257899,,,,,,,,,,,-0.460905,0.256151,-0.202415,2.172692,0.801695,0.188051,1.853584,-0.387618,-0.414230,-0.890272,0.796422,0.676634,-0.087192,335.726742,1.645290,-0.986432,-1.047425
8.100000,-0.148007,-0.854821,-0.867468,,,,,,,,,,,-0.190086,-0.880725,-0.869162,2.231611,0.825411,0.163385,1.854254,-0.366015,-0.397094,-0.824596,0.735124,0.588350,0.147455,332.865906,0.558965,-1.428672,1.237672
8.200000,0.026312,-0.216793,-0.828703,,,,,,,,,,,0.042099,-0.219864,-0.871864,2.239526,0.844688,0.127713,3.073096,-0.337040,-0.395487,-0.734921,0.925525,0.642909,0.183939,324.646919,1.820758,-0.268519,1.304934
8.300000,-0.243238,-0.293828,0.560997,,,,,,,,,,,-0.246454,-0.313667,0.458670,2.257000,0.851955,0.112801,3.053262,-0.334814,-0.386315,-0.717800,1.035042,0.612599,0.162421,320.445192,2.793320,-0.441624,0.941668
8.400000,-0.015101,-0.051287,1.072019,,,,,,,,,,,-0.019086,-0.048400,1.081474,2.256566,0.837858,0.126245,3.039157,-0.376179,-0.374628,-0.811176,0.570638,0.887024,0.016290,323.925863,-0.752544,1.194370,-0.689292
8.500000,0.043538,0.889199,1.189538,,,,,,,,,,,0.043859,0.911800,1.200823,2.243981,0.815726,0.160763,3.068771,-0.409260,-0.375256,-0.908711,0.418463,0.640219,0.066774,330.184871,-1.976693,-0.592726,0.431367
8.600000,-0.411054,1.160789,1.094964,146.415100,0.690000,42.200122,52.223545,115.825100,163.476562,8.942613,3.000000,20.941283,0.950000,-0.421627,1.139159,1.067193,2.272576,0.782177,0.232008,-1.820622,-0.434364,-0.380970,-1.028561,0.885208,0.540419,-0.207474,339.440657,2.556465,-3.490507,-1.536996
8.700000,-0.192578,0.068111,0.770616,,,,,,,,,,,-0.173918,0.045564,0.778309,2.370889,0.762170,0.277805,-2.936895,-0.454580,-0.367603,-1.113519,0.400169,0.974265,-0.152718,346.025103,0.960393,0.338544,-0.927864
8.800000,0.024736,0.325549,0.969921,,,,,,,,,,,0.025611,0.332199,0.971853,2.449794,0.742749,0.297158,-2.862135,-0.486068,-0.351413,-1.197414,0.311868,0.934178,0.023418,347.428973,-0.295929,0.134140,1.361518
8.900000,0.048076,0.697157,1.197124,,,,,,,,,,,0.060137,0.703180,1.190732,2.566501,0.707067,0.334420,-2.697962,-0.515916,-0.348676,-1.298144,0.382877,0.525713,-0.065010,349.770098,0.378683,-4.348392,0.304831
9.000000,-0.190203,0.889171,0.048225,,,,,,,,,,,-0.208550,0.938096,0.068558,2.622937,0.677887,0.370160,-2.559185,-0.519686,-0.364944,-1.346244,0.311784,1.141226,-0.263788,352.247469,2.359771,2.438545,-1.036074
9.100000,-0.102597,0.285425,0.331960,,,,,,,,,,,-0.096868,0.211484,0.307310,2.853980,0.654349,0.414169,-2.246242,-0.513131,-0.370035,-1.360993,0.216702,1.097217,-0.238382,356.260829,0.269322,1.034760,-1.100513
9.200000,-0.002563,0.749075,0.099420,,,,,,,,,,,-0.003254,0.759146,0.082205,2.927199,0.646884,0.425663,-2.152087,-0.512533,-0.370861,-1.365175,0.370366,0.901022,-0.132748,357.158286,2.637555,-0.993839,0.902555
9.300000,-0.272916,-0.026761,-0.238023,,,,,,,,,,,-0.275656,-0.034380,-0.231925,2.905454,0.645956,0.437892,-2.138284,-0.497879,-0.378229,-1.344524,0.251706,0.939511,-0.304005,359.034330,1.718701,-0.545664,-1.491127
9.400000,-0.122378,0.078017,0.364356,,,,,,,,,,,-0.116007,0.095280,0.379523,2.956932,0.652041,0.440217,-2.098213,-0.495202,-0.368498,-1.326044,0.082997,0.947002,-0.087149,216.043956,-0.433030,-0.583650,1.296230
9.500000,0.111108,0.608382,0.351325,,,,,,,,,,,0.105099,0.612088,0.302208,-1.770635,0.626754,0.465778,-1.771389,-0.510438,-0.359788,-1.346084,0.402826,1.234050,-0.135262,1.181353,4.511317,1.204489,1.043358
9.600000,-0.013624,0.510882,0.099285,145.147949,0.750000,30.927315,52.223540,114.557949,161.015625,8.969792,3.000000,20.941290,0.950000,-0.002134,0.502093,0.120986,-3.092625,0.621267,0.480337,-1.786533,-0.494074,-0.372932,-1.334726,-0.342902,0.950940,-0.122231,2.877902,-5.044206,0.323208,1.135755
9.700000,0.092128,0.850899,0.117127,,,,,,,,,,,0.095924,0.851795,0.120833,-3.045967,0.595010,0.500488,-1.665512,-0.489299,-0.394850,-1.358883,-0.023701,0.993179,-0.067012,3.874344,-0.536150,0.959074,1.135253
9.800000,0.136005,0.773860,-0.016786,,,,,,,,,,,0.136590,0.749422,-0.019923,-3.004924,0.565060,0.528366,-1.526081,-0.474534,-0.419779,-1.370522,0.070110,0.985893,-0.236592,6.139070,0.916755,0.213360,-0.238105
9.900000,-0.035761,0.316213,-0.400199,,,,,,,,,,,-0.040010,0.310551,-0.415899,-1.830019,0.553444,0.537040,-1.555530,-0.461520,-0.438439,-1.379542,0.065460,1.045560,-0.132536,7.126253,0.845538,0.742991,0.304299
10.000000,0.083931,0.323986,-0.639613,,,,,,,,,,,0.090330,0.313134,-0.650851,2.916765,0.556128,0.535833,-1.792207,-0.437156,-0.460851,-1.370927,-0.242171,1.226105,0.089677,8.693542,-2.845331,2.111461,2.418329
10.100000,-0.245322,1.198440,-0.851294,,,,,,,,,,,-0.253537,1.242658,-0.844373,2.567271,0.558026,0.532474,-2.077182,-0.400878,-0.493850,-1.341078,0.243376,0.720535,-0.205179,10.710100,0.733302,-2.083311,0.769148
10.200000,-0.242825,-0.030358,-0.772879,,,,,,,,,,,-0.227334,-0.102640,-0.753602,2.375392,0.551665,0.549411,-2.151478,-0.341108,-0.526503,-1.269568,0.368495,0.937596,-0.503439,17.571640,2.652767,0.628848,-3.123107
10.300000,0.088072,0.583363,0.172900,,,,,,,,,,,0.080705,0.606303,0.148328,2.281274,0.558344,0.536557,-2.255950,-0.339290,-0.533905,-1.259623,0.423590,0.998378,-0.225888,17.363006,1.461212,-0.629878,0.524056
10.400000,-0.011128,0.091961,-0.291110,,,,,,,,,,,0.009655,0.092261,-0.257104,2.229692,0.553878,0.542241,-2.262111,-0.317523,-0.546199,-1.234849,0.157375,0.644412,-0.156581,20.352599,-0.041682,-2.347026,0.537993
10.500000,0.062951,0.095182,0.134875,,,,,,,,,,,0.052892,0.066477,0.128851,2.226097,0.538546,0.551851,-2.232781,-0.316240,-0.552625,-1.255053,0.381461,1.084053,-0.403294,20.945390,2.108385,1.453183,-1.511564
10.600000,-0.341443,-0.111968,-0.424444,144.661377,0.720000,23.505864,52.223532,114.071377,169.101562,9.000784,3.000000,20.941296,1.950000,-0.337127,-0.105093,-0.426069,2.201528,0.542776,0.549307,-2.252743,-0.308143,-0.555402,-1.237260,0.211597,1.731085,-0.422514,21.741279,0.771560,7.680388,-2.026798
10.700000,1.067348,-1.167452,1.783883,,,,,,,,,,,1.106099,-1.037841,1.804104,2.370549,0.551032,0.537653,-2.188370,-0.359704,-0.524439,-1.297235,0.182953,-0.246099,0.328447,17.137597,-0.650796,-11.120207,5.333372
10.800000,0.356522,0.317270,0.550912,,,,,,,,,,,0.317096,0.171144,0.527428,2.672283,0.495491,0.557591,-1.866092,-0.411796,-0.523105,-1.441871,0.035886,1.323798,-0.252866,10.798335,-0.027729,3.258358,-1.285405
10.900000,-0.062523,-0.468895,-0.209336,,,,,,,,,,,-0.065436,-0.490385,-0.213289,2.676104,0.505891,0.549533,-1.898177,-0.420709,-0.514771,-1.440493,-0.025670,1.106055,-0.235707,9.963027,-0.663324,1.123368,-1.107130
11.000000,0.178847,-0.115963,-0.171428,,,,,,,,,,,0.186678,-0.101748,-0.167512,2.517727,0.522303,0.532889,-2.097020,-0.425360,-0.512136,-1.430306,-0.066151,0.940817,0.208072,8.930306,-1.336947,-0.483746,3.226782
11.100000,0.208131,0.573225,-0.347588,,,,,,,,,,,0.191307,0.562188,-0.365900,2.244882,0.508948,0.529463,-2.332760,-0.419531,-0.533381,-1.443667,0.103548,1.188409,-0.144266,8.014565,0.159824,1.927001,-0.517609
11.200000,-0.113087,0.189404,-0.799968,,,,,,,,,,,-0.102460,0.197591,-0.784315,1.989882,0.516379,0.519862,-2.551447,-0.390534,-0.557143,-1.384572,0.088040,0.968483,0.012764,9.966093,-0.649225,-0.137191,1.123637
11.300000,0.465197,0.581195,0.368134,,,,,,,,,,,0.468249,0.576678,0.387365,1.845008,0.501534,0.524227,-2.640751,-0.374721,-0.577098,-1.376081,0.034937,0.838248,-0.139915,10.748486,-1.319385,-1.399368,-0.458145
11.400000,0.065608,0.060525,0.559288,,,,,,,,,,,0.063742,0.009886,0.527688,1.911978,0.468386,0.548972,-2.522934,-0.381890,-0.577305,-1.441551,0.268939,0.964085,-0.209306,10.345417,1.603329,-0.268874,-1.334156
11.500000,0.379595,-0.200222,0.304939,,,,,,,,,,,0.390998,-0.157130,0.330576,1.903362,0.465168,0.548066,-2.551742,-0.397133,-0.570471,-1.469383,0.024030,0.915584,0.074658,8.968934,-0.585436,-0.775894,1.288770
11.600000,0.094807,0.231256,0.188912,144.568604,0.720000,19.998632,52.223514,113.978603,178.242188,9.029576,3.000000,20.941301,2.310000,0.087275,0.229540,0.183197,1.769739,0.444947,0.554231,-2.673309,-0.411429,-0.570579,-1.518038,0.109438,1.205890,-0.071729,6.663389,0.611349,2.032895,-0.471101
11.700000,0.256286,0.441233,-0.128184,,,,,,,,,,,0.257963,0.430836,-0.137304,1.418096,0.427370,0.560510,0.154888,-0.407441,-0.580607,-1.529653,0.092926,0.962424,-0.031578,6.129350,0.522690,-0.360120,-0.250947
11.800000,0.115085,0.479633,-0.305511,,,,,,,,,,,0.115950,0.479344,-0.315945,1.070278,0.412691,0.561110,2.998315,-0.393309,-0.600047,-1.509241,0.216159,0.968431,-0.127614,6.379424,1.523040,-0.290586,-1.337859
11.900000,0.023456,0.521069,-0.543251,,,,,,,,,,,0.024444,0.509715,-0.537780,1.054516,0.405253,0.555234,3.035517,-0.368850,-0.625527,-1.458733,0.308081,0.998216,-0.139137,7.368241,1.931165,0.045197,-1.475144
12.000000,0.156196,0.051856,-0.006133,,,,,,,,,,,0.158818,0.048432,0.015510,1.031565,0.401050,0.548662,3.043756,-0.353682,-0.642671,-1.421737,0.111160,0.942703,-0.081870,7.808601,-0.358834,-0.453036,-0.945226
12.100000,0.158804,-0.088785,-0.053969,,,,,,,,,,,0.161544,-0.100467,-0.071503,0.915031,0.392882,0.550200,2.933292,-0.358444,-0.643760,-1.429642,0.267679,0.998907,-0.120111,7.057139,1.275899,0.086915,-1.464081
12.200000,0.072398,-0.426955,-0.165992,,,,,,,,,,,0.064301,-0.436832,-0.164936,0.846762,0.398805,0.536570,2.837282,-0.368426,-0.645959,-1.410055,0.169110,0.972925,-0.228250,5.164382,0.161470,-0.138979,-2.709364
12.300000,0.012330,-0.620484,-0.082589,,,,,,,,,,,0.017508,-0.627036,-0.078814,0.882070,0.416346,0.521209,2.817799,-0.382535,-0.639200,-1.396988,0.194389,0.974823,-0.059032,2.969338,0.298877,-0.099126,-1.118671
12.400000,-0.128764,-0.529587,-0.142838,,,,,,,,,,,-0.132988,-0.532794,-0.141356,0.907031,0.432996,0.506447,2.786743,-0.397742,-0.630686,-1.387853,0.240668,1.063248,-0.147562,1.224738,0.687303,0.783954,-2.066424
12.500000,0.140130,-0.412592,0.249166,,,,,,,,,,,0.143688,-0.406838,0.253641,0.908316,0.445350,0.497220,2.737955,-0.413776,-0.618993,-1.392354,0.093416,0.805132,-0.061020,179.718291,-0.682383,-1.755191,-1.278257
12.600000,-0.040400,-0.403253,0.260335,144.000061,0.720000,16.611385,52.223493,113.410061,188.085938,9.058198,3.000000,20.941301,2.310000,-0.042683,-0.416014,0.261555,0.786781,0.446758,0.495316,2.578318,-0.434277,-0.605328,-1.413965,0.154250,1.064598,-0.106987,357.982171,0.217475,0.754053,-1.864529
12.700000,-0.042567,-0.733702,0.294435,,,,,,,,,,,-0.036566,-0.743635,0.297827,0.724652,0.456223,0.492674,2.464390,-0.453808,-0.585718,-1.438918,-0.003294,0.974170,-0.077231,357.163961,-1.037729,-0.167954,-1.561307
12.800000,-0.103000,-0.637837,0.214325,,,,,,,,,,,-0.106360,-0.633883,0.202802,0.532268,0.466212,0.484926,2.201316,-0.481991,-0.561332,-1.460172,-0.032658,0.975676,-0.115765,355.303657,-0.957515,-0.178408,-2.007103
12.900000,0.040016,-0.406834,-0.148318,,,,,,,,,,,0.029769,-0.403286,-0.152795,0.554121,0.478843,0.475184,2.175483,-0.494173,-0.548323,-1.465010,0.047575,1.078206,0.067442,354.421389,-0.120958,0.822054,-0.190521
13.000000,-0.178345,-0.370015,-0.133835,,,,,,,,,,,-0.164569,-0.368493,-0.128974,0.808138,0.494916,0.467951,2.401408,-0.492411,-0.541818,-1.466089,-0.029541,0.828441,0.003188,354.523848,-1.045518,-1.628693,-0.659343
13.100000,-0.179579,0.073849,-0.171276,,,,,,,,,,,-0.178979,0.061413,-0.171731,0.981777,0.506027,0.463150,2.555284,-0.491195,-0.536778,-1.464224,0.112953,1.070525,0.063921,354.688435,0.240697,0.747260,0.052310
13.200000,-0.379189,-0.135125,0.291895,,,,,,,,,,,-0.357364,-0.175478,0.305909,1.352351,0.511589,0.477109,2.943501,-0.477097,-0.531909,-1.478017,-0.063339,0.745975,-0.196432,357.182470,-1.497450,-2.448331,-2.116346
13.300000,-0.377885,0.077956,-0.205353,,,,,,,,,,,-0.417352,0.129003,-0.224776,1.192652,0.512118,0.472134,1.499702,-0.490538,-0.523417,-1.488449,0.380963,1.763922,-0.275404,356.191240,3.024187,7.525294,-2.993649
13.400000,0.480542,-0.780966,0.030978,,,,,,,,,,,0.504190,-0.877058,0.036533,1.699840,0.526028,0.479019,-1.132030,-0.475059,-0.517635,-1.478144,-0.411249,0.595888,0.405557,214.704582,-4.908793,-3.920762,4.096474
13.500000,-0.125910,0.267274,0.019663,,,,,,,,,,,-0.094442,0.335069,-0.008620,1.574160,0.534919,0.462429,0.573267,-0.492804,-0.506950,-1.483397,0.069281,0.735741,-0.041684,355.820119,-0.167678,-2.553887,-0.457665
13.600000,-0.670443,0.171639,-0.697679,143.968811,0.720000,14.224381,52.223470,113.378811,183.515625,9.086653,3.000000,20.941297,2.810000,-0.688846,0.192635,-0.650487,1.642709,0.553045,0.449047,0.007280,-0.475693,-0.515260,-1.422247,0.171558,1.741551,-0.202069,355.875064,0.279434,7.383803,-1.918773
13.700000,0.498954,-0.917169,0.443178,,,,,,,,,,,0.477847,-0.915739,0.434809,1.717695,0.554932,0.449923,0.069358,-0.480419,-0.508090,-1.434442,0.174979,0.826630,-0.000217,356.385323,0.418561,-1.608222,0.108899
13.800000,0.036364,-0.412976,-0.065444,,,,,,,,,,,0.057329,-0.445944,-0.078799,1.674837,0.556198,0.442991,-0.013694,-0.499301,-0.495021,-1.461668,0.056621,0.979961,0.018394,354.976456,-0.512094,-0.138120,0.165043
13.900000,0.032443,-0.159203,0.007996,,,,,,,,,,,0.032509,-0.152282,0.013845,1.615273,0.563217,0.430500,3.034893,-0.507675,-0.489608,-1.456021,-0.011270,1.009868,-0.006041,354.178693,-1.227135,0.161298,-0.178820
14.000000,0.087723,0.082231,-0.003523,,,,,,,,,,,0.086886,0.086665,-0.009443,1.542189,0.561790,0.427555,2.953835,-0.512894,-0.488389,-1.460321,0.050211,1.009392,0.037555,354.281917,-0.569361,0.151903,0.166372
14.100000,0.056753,0.278819,-0.077566,,,,,,,,,,,0.061165,0.273122,-0.083283,1.504097,0.557340,0.430668,2.936671,-0.507506,-0.496302,-1.454180,0.012016,0.984460,-0.001311,355.025036,-0.999269,-0.085758,-0.245142
14.200000,-0.094166,0.260414,-0.198336,,,,,,,,,,,-0.097826,0.257243,-0.200394,1.520517,0.555700,0.433519,2.978424,-0.496790,-0.506390,-1.438104,-0.030035,1.040900,-0.036401,355.590294,-1.574109,0.487409,-0.565913
14.300000,-0.226625,0.046722,-0.276606,,,,,,,,,,,-0.223743,0.038291,-0.273090,1.660884,0.562192,0.437159,-0.004369,-0.480696,-0.511597,-1.414400,0.028369,1.122096,-0.076228,357.005186,-1.247782,1.317415,-0.750557
14.400000,-0.625466,-0.525635,-0.419973,,,,,,,,,,,-0.625098,-0.546698,-0.399831,1.821758,0.583960,0.429337,-3.004896,-0.466066,-0.507093,-1.369896,0.040567,1.334930,-0.257558,357.822058,-1.532083,3.483997,-2.245521
14.500000,0.678973,-0.623933,0.738473,,,,,,,,,,,0.702717,-0.652721,0.734660,1.873002,0.595336,0.415306,-1.146953,-0.491871,-0.480410,-1.396326,-0.120975,-0.107761,0.316122,355.660434,-2.859010,-10.711431,3.316484
14.600000,-0.214308,0.455185,0.044126,143.968812,0.720000,20.761744,52.223497,113.378812,183.515623,4.415937,4.029364,20.941233,2.810000,-0.238098,0.437227,0.036108,1.643126,0.568230,0.426154,0.542077,-0.505310,-0.489358,-1.443750,0.223711,1.775514,-0.109186,353.928930,0.966801,7.684752,-1.171401
14.700000,-0.052589,-0.041606,0.099218,,,,,,,,,,,-0.056240,0.029617,0.083348,1.814620,0.574881,0.429898,-3.062536,-0.501813,-0.482552,-1.443319,0.299243,0.894814,-0.095790,354.771028,1.691922,-0.951843,-0.841650
14.800000,-1.164558,0.144515,-0.476420,,,,,,,,,,,-1.145445,0.046230,-0.433222,2.131342,0.597175,0.442796,-2.726112,-0.467504,-0.477636,-1.377901,0.034848,1.255338,-0.124899,214.758625,-1.325376,2.692719,-0.418511
14.900000,1.144555,-0.673280,0.988197,,,,,,,,,,,1.173587,-0.631748,0.941032,2.255349,0.601870,0.430130,-2.684835,-0.501949,-0.447072,-1.425627,0.293102,0.310532,-0.029063,320.778808,1.646290,-6.649265,0.390505
15.000000,0.354195,-0.223064,0.272140,,,,,,,,,,,0.350569,-0.187652,0.294524,1.631851,0.571991,0.419557,2.990767,-0.526894,-0.468084,-1.476684,-0.028905,1.122655,0.225546,352.489382,-1.191602,1.247063,2.081737
15.100000,-0.115204,0.207720,-0.319683,,,,,,,,,,,-0.140065,0.204675,-0.333902,1.325506,0.561476,0.418420,2.688188,-0.535998,-0.471502,-1.486523,0.222508,1.307161,-0.118095,351.016469,1.444701,3.047258,-1.506883
15.200000,0.317774,0.229587,-0.058827,,,,,,,,,,,0.312777,0.224785,-0.061784,1.373196,0.560591,0.419117,2.757326,-0.526837,-0.482157,-1.469178,0.138342,0.896928,0.030307,351.137709,0.439131,-0.960093,-0.076673
15.300000,-0.193137,0.377601,0.066629,,,,,,,,,,,-0.243545,0.391538,0.054587,1.415952,0.555122,0.428050,2.839309,-0.514160,-0.494154,-1.460463,0.108102,0.853990,-0.033115,352.117016,0.033308,-1.372143,-0.647532
15.400000,-0.310458,0.456015,0.029181,,,,,,,,,,,-0.212063,0.399097,0.023417,1.361378,0.544729,0.437811,2.191606,-0.508244,-0.503137,-1.463448,0.270976,1.222969,-0.246355,352.368376,1.678802,2.243280,-2.753789
15.500000,0.782833,-0.450249,0.406383,,,,,,,,,,,0.628128,-0.399736,0.384429,1.492258,0.536861,0.457321,-0.165396,-0.504750,-0.497533,-1.492621,0.016043,0.367911,0.299554,355.103067,-0.544447,-6.168381,2.828403
15.600000,-0.971302,0.296986,-0.176746,143.946656,0.720000,19.911433,52.223471,113.356656,175.078128,4.368755,4.029364,20.941246,2.930000,-0.923654,0.455675,-0.134734,1.628800,0.528688,0.471803,-0.629311,-0.499693,-0.497635,-1.504332,0.286536,1.616045,-0.241035,355.755104,2.274846,6.064200,-2.348884
15.700000,0.212974,-0.661237,0.302917,,,,,,,,,,,0.302728,-0.718628,0.301703,1.577174,0.545643,0.450689,1.128260,-0.518946,-0.479304,-1.513953,0.120729,0.932898,-0.184274,354.401609,0.644947,-0.641814,-1.861850
15.800000,0.038977,-0.716215,-0.339981,,,,,,,,,,,0.075974,-0.967883,-0.294994,1.826940,0.559765,0.436701,-0.574285,-0.535563,-0.456947,-1.525264,0.255754,0.816713,0.147659,353.419458,2.071876,-1.785619,1.441255
15.900000,-0.224380,0.393742,-0.154151,,,,,,,,,,,-0.379549,0.602286,-0.227912,2.073661,0.577261,0.438393,-2.822098,-0.508586,-0.464593,-1.466262,-0.220067,1.120174,0.278099,355.498578,-3.120995,1.232496,3.056587
16.000000,-0.181040,-0.395568,0.495608,,,,,,,,,,,-0.118224,-0.420366,0.551633,2.220915,0.567625,0.443279,-2.684639,-0.523512,-0.455106,-1.504006,0.085101,1.049249,-0.456329,355.316069,0.258143,0.505434,-4.212611
16.100000,0.148665,-0.232319,-0.118608,,,,,,,,,,,0.157781,-0.285501,-0.143869,2.271825,0.576090,0.435125,-2.668096,-0.530347,-0.444399,-1.504495,0.028110,1.036952,0.259680,354.855262,-0.300486,0.383943,2.840339
16.200000,-0.017406,0.369553,-0.000029,,,,,,,,,,,-0.010263,0.347756,0.002647,2.154857,0.571371,0.437674,-2.767353,-0.527241,-0.451618,-1.505327,-0.036954,1.043294,0.090752,354.742388,-0.959375,0.445580,1.124614
16.300000,-0.038241,0.762012,-0.003527,,,,,,,,,,,-0.025259,0.736894,0.001564,2.173345,0.557817,0.455462,-2.687065,-0.512730,-0.467289,-1.504847,0.013353,0.986584,0.025046,356.312649,-0.449239,-0.110238,0.529454
16.400000,-0.201639,0.635440,-0.018571,,,,,,,,,,,-0.195808,0.653697,-0.020838,2.309662,0.543370,0.479618,-2.473286,-0.490502,-0.483761,-1.495620,0.039532,0.995670,-0.061191,358.584692,-0.186877,-0.014685,-0.142598
16.500000,-0.169561,0.299966,-0.047995,,,,,,,,,,,-0.162928,0.324146,-0.037439,2.458421,0.536134,0.497464,-2.273864,-0.472726,-0.491520,-1.480667,0.060747,1.037671,-0.043263,1.166258,0.026256,0.409315,0.249546
16.600000,-0.821459,-0.078437,-0.642038,143.670716,0.720000,19.911433,52.223449,113.080716,163.828134,4.388360,4.029364,20.941263,2.930000,-0.761515,-0.017651,-0.643458,2.445705,0.546868,0.504243,-2.261791,-0.448078,-0.495582,-1.430335,0.163971,1.574324,-0.227399,3.696896,0.729162,5.734188,-1.177115
16.700000,0.497518,-0.560700,0.147034,,,,,,,,,,,0.366860,-0.684862,0.121345,2.493798,0.573215,0.495160,-2.260559,-0.443022,-0.479281,-1.384598,-0.111444,0.057828,0.394539,5.439584,-2.236330,-9.068564,5.271793
16.800000,-0.306226,0.462369,-0.124994,,,,,,,,,,,-0.271427,0.604807,-0.111767,2.441570,0.560325,0.501227,-2.278509,-0.439730,-0.491156,-1.399170,0.002754,1.629988,-0.046709,5.471185,-1.056084,6.323564,0.814440
16.900000,-0.424876,0.474774,-0.644725,,,,,,,,,,,-0.346578,0.371524,-0.608921,2.368884,0.567260,0.501435,-2.330946,-0.420951,-0.499234,-1.363370,0.220532,1.520764,-0.212952,6.700702,0.768353,5.321035,-0.629166
17.000000,0.263783,0.215896,0.323269,,,,,,,,,,,0.171624,-0.042443,0.288441,2.396682,0.575835,0.508895,-2.283476,-0.400151,-0.499045,-1.321040,0.057014,-0.006485,0.179059,10.108442,-1.024028,-9.564520,3.588158
17.100000,-0.286076,0.619531,0.150850,,,,,,,,,,,-0.253617,0.833659,0.110549,2.394848,0.548456,0.531678,-2.204572,-0.387250,-0.516183,-1.341143,0.135661,1.409085,-0.102681,11.477603,0.011105,4.269901,0.791699
17.200000,-0.070986,0.096427,0.274568,,,,,,,,,,,-0.083253,0.195890,0.323897,2.534420,0.537922,0.553057,-2.028000,-0.378021,-0.511687,-1.336432,0.125320,1.023161,-0.271091,14.197543,0.224687,0.495236,-0.617392
17.300000,-0.085847,0.456310,-0.050156,,,,,,,,,,,-0.061554,0.349853,-0.050777,2.562420,0.536203,0.557007,-1.994042,-0.376457,-0.510329,-1.334880,0.138870,1.066708,0.128947,15.015448,0.420977,0.925869,3.354340
17.400000,0.191947,0.800496,0.257407,,,,,,,,,,,0.165915,0.793606,0.219112,2.581880,0.513250,0.578904,-1.896250,-0.356902,-0.523348,-1.335445,-0.055061,0.796680,0.070149,17.326152,-1.274144,-1.723131,2.850809
17.500000,-0.099937,0.806255,-0.014476,,,,,,,,,,,-0.071773,0.812973,0.025215,2.651132,0.480704,0.603841,-1.740836,-0.341942,-0.535916,-1.351853,0.103293,1.121703,-0.087700,19.258391,0.653204,1.427670,1.238812
17.600000,-0.001348,0.682040,-0.216628,143.632325,0.720000,19.911433,52.223442,113.042325,156.796888,4.748652,4.029364,20.941270,2.930000,-0.004979,0.689711,-0.215232,2.579807,0.460900,0.619333,-1.729761,-0.313685,-0.552711,-1.341745,-0.017749,1.086075,0.053328,22.845180,-0.600578,1.075853,2.702779
17.700000,0.088448,1.005854,-0.204138,,,,,,,,,,,0.092590,1.012144,-0.203240,2.475258,0.435564,0.631710,-1.743844,-0.285208,-0.574125,-1.342586,0.054202,0.945387,0.023282,24.961994,0.067891,-0.296813,2.472543
17.800000,-0.107836,1.199036,-0.303494,,,,,,,,,,,-0.106487,1.189734,-0.305672,2.361241,0.399825,0.648936,-1.734298,-0.245001,-0.598842,-1.340113,0.150128,1.032719,-0.079404,27.549570,1.132396,0.844106,1.274609
17.900000,0.097369,1.009165,-0.308302,,,,,,,,,,,0.094352,1.007201,-0.312036,2.229363,0.364937,0.661670,-1.746877,-0.204251,-0.622121,-1.336171,0.190781,1.089668,-0.106293,29.710278,1.392034,0.786502,1.443871
18.000000,0.049134,0.861107,-0.352440,,,,,,,,,,,0.057645,0.843791,-0.349526,2.081613,0.333879,0.668064,-1.789525,-0.166973,-0.643535,-1.331545,0.157748,1.052792,-0.087834,30.961130,1.185365,1.027907,1.370060
18.100000,0.350721,0.441883,-0.282742,,,,,,,,,,,0.351665,0.441879,-0.284227,1.924273,0.309656,0.665281,-1.886655,-0.151929,-0.662083,-1.347014,0.190565,1.084143,-0.033215,30.958474,1.020313,0.849226,1.792773
18.200000,0.631132,0.388249,-0.291368,,,,,,,,,,,0.643859,0.383552,-0.292564,1.710928,0.284000,0.658292,-2.054579,-0.147951,-0.681161,-1.374804,0.144630,0.983615,0.059340,28.901387,0.555771,-0.034815,2.265327
18.300000,0.726183,0.389142,-0.172138,,,,,,,,,,,0.734420,0.383774,-0.167325,1.369255,0.251576,0.649631,-2.359132,-0.156200,-0.700115,-1.417121,0.094475,0.979556,0.056642,25.583812,0.060583,0.267502,1.461481
18.400000,0.823463,0.338987,-0.089928,,,,,,,,,,,0.819267,0.335423,-0.091046,0.797021,0.214263,0.641970,-2.269786,-0.171431,-0.715841,-1.447912,0.110001,0.987013,0.001477,22.159467,-0.284746,-0.295071,0.316201
18.500000,0.660644,0.202772,0.094741,,,,,,,,,,,0.658901,0.191126,0.101248,0.216679,0.180480,0.637530,2.834820,-0.184712,-0.725788,-1.444411,0.142763,0.945282,-0.094525,18.211919,0.324026,-0.213178,-1.003007
18.600000,0.388132,-0.360404,-0.025967,143.091675,0.720000,21.768843,52.223421,112.501675,156.796887,4.748652,4.029364,20.941286,2.680000,0.378789,-0.376336,-0.032681,-0.181324,0.163044,0.633857,2.427774,-0.208043,-0.726832,-1.424326,0.205710,1.047241,-0.137000,14.801241,0.904648,0.425854,-2.433338
18.700000,0.285168,-0.572298,-0.071945,,,,,,,,,,,0.286710,-0.580118,-0.073753,-0.278393,0.170235,0.623111,2.277551,-0.236436,-0.725773,-1.397727,0.098671,0.940369,-0.033228,11.886882,-0.065706,-0.359092,-1.618972
18.800000,0.118820,-0.687864,-0.046604,,,,,,,,,,,0.125541,-0.695496,-0.040090,-0.295428,0.186170,0.610515,2.191455,-0.266377,-0.722187,-1.376025,0.062598,0.881630,0.042868,9.120983,-0.456287,-0.773350,-1.435951
18.900000,0.134909,-0.453023,-0.116776,,,,,,,,,,,0.123489,-0.446260,-0.124017,-0.345208,0.198229,0.601602,2.080013,-0.294776,-0.715426,-1.359298,0.240494,1.130772,0.018159,6.809964,1.262409,1.192489,-1.490266
19.000000,0.090202,-0.315011,0.053032,,,,,,,,,,,0.098586,-0.320748,0.057948,-0.308411,0.210305,0.593622,2.077770,-0.308118,-0.713037,-1.352017,0.082440,0.881534,0.098741,5.284454,-0.143927,-0.760476,-0.757500
19.100000,0.074959,-0.382768,0.088060,,,,,,,,,,,0.072598,-0.383746,0.086992,-0.370188,0.216126,0.590613,1.978020,-0.326788,-0.705434,-1.344751,0.129166,0.976358,0.032054,3.829093,0.391366,-0.001414,-1.804967
19.200000,0.030349,-0.426431,-0.162923,,,,,,,,,,,0.030227,-0.433454,-0.166048,-0.370799,0.226053,0.584256,1.937460,-0.342410,-0.700177,-1.337962,0.124974,1.030431,0.024608,2.501837,0.530090,0.621084,-1.931155
19.300000,-0.031863,-0.391671,-0.104103,,,,,,,,,,,-0.032284,-0.386366,-0.098088,-0.307842,0.240991,0.572859,1.954439,-0.356558,-0.697550,-1.329761,0.052446,1.004376,0.008832,1.324173,-0.201253,0.608409,-2.029212
19.400000,0.226232,-0.559312,0.038215,,,,,,,,,,,0.226156,-0.565621,0.029540,-0.316973,0.251650,0.565097,1.897751,-0.375577,-0.690044,-1.321199,0.066043,1.007085,0.036343,179.862865,-0.533469,-0.220234,-1.774558
19.500000,-0.088088,-0.539989,-0.014351,,,,,,,,,,,-0.077847,-0.556352,-0.009561,-0.295412,0.265746,0.556462,1.870875,-0.391581,-0.682892,-1.317832,-0.017223,1.018675,0.115942,358.225497,-0.809947,0.541005,-1.373599
19.600000,-0.049273,-0.734043,0.185469,142.489197,0.790000,27.239359,52.223402,111.899197,171.562504,4.748652,4.029364,20.941281,2.350000,-0.049598,-0.732061,0.186799,-0.330362,0.282503,0.552143,1.774721,-0.412710,-0.666992,-1.324471,-0.111391,0.987349,-0.020476,357.257095,-1.412355,0.343035,-2.558834
19.700000,-0.174787,-0.593723,-0.124550,,,,,,,,,,,-0.184673,-0.591338,-0.131592,-0.384518,0.300843,0.548213,1.652776,-0.435696,-0.647331,-1.333518,-0.016518,1.125867,0.039844,355.675131,-0.157847,1.560040,-1.998128
19.800000,-0.166813,-0.492601,-0.348536,,,,,,,,,,,-0.171632,-0.498055,-0.358078,-0.271663,0.324346,0.537834,1.717956,-0.441203,-0.640935,-1.349776,0.039296,1.049174,0.076744,355.864112,-0.259209,0.721288,-1.069551
19.900000,0.017927,-0.234581,-0.356538,,,,,,,,,,,0.037118,-0.227650,-0.350831,-0.067345,0.346924,0.523228,1.887248,-0.439465,-0.642424,-1.356830,-0.009884,0.817808,0.237318,355.739255,-0.611510,-1.458452,0.011770
20.000000,0.023327,0.106226,-0.141385,,,,,,,,,,,0.028229,0.103524,-0.131472,0.033593,0.350465,0.512679,1.984759,-0.437183,-0.650531,-1.339907,0.071535,1.020859,0.081914,354.972388,-0.201141,0.464800,-1.250583
20.100000,0.014963,-0.137295,-0.007281,,,,,,,,,,,0.011237,-0.157334,-0.007207,0.024395,0.345510,0.513017,1.987158,-0.435093,-0.654314,-1.333634,0.084377,1.091731,-0.090454,354.995294,-0.104321,1.174086,-2.994215
20.200000,0.110900,-0.777360,0.067927,,,,,,,,,,,0.108761,-0.785309,0.059955,-0.014891,0.352079,0.506726,1.908029,-0.451403,-0.644511,-1.329913,-0.033809,0.972498,-0.052954,353.779267,-1.104054,0.013484,-2.725828
20.300000,-0.027071,-0.719347,-0.131561,,,,,,,,,,,-0.029162,-0.713484,-0.135696,-0.005768,0.369811,0.491071,1.843254,-0.475353,-0.629305,-1.324211,-0.038245,1.105817,0.060161,351.807441,-1.019001,1.334367,-1.715350
20.400000,-0.044791,-0.698307,-0.052837,,,,,,,,,,,-0.039857,-0.708613,-0.046117,0.048540,0.389103,0.478526,1.838165,-0.489223,-0.616587,-1.329012,-0.169136,0.954942,0.111047,350.596485,-2.278994,-0.156610,-1.175230
20.500000,-0.177866,-0.470811,-0.082746,,,,,,,,,,,-0.176762,-0.471594,-0.078808,0.072494,0.407078,0.467591,1.800649,-0.504928,-0.600528,-1.336805,-0.041982,0.981615,0.072995,349.444125,-0.929405,0.087103,-1.498150
20.600000,-0.077498,-0.434144,-0.167003,142.373048,0.770000,19.744278,52.223372,111.783048,194.765616,4.748652,4.029364,20.941252,3.160000,-0.088736,-0.423909,-0.181900,0.098266,0.419505,0.459881,1.786140,-0.514149,-0.590022,-1.342688,0.035738,1.190010,0.086852,348.171515,-0.122903,2.117451,-1.314469
20.700000,0.019609,-0.205358,0.115039,,,,,,,,,,,0.040756,-0.232862,0.122331,0.157805,0.430626,0.461112,1.833465,-0.510467,-0.584230,-1.362766,-0.128632,0.798741,0.201826,348.748970,-1.786512,-1.762046,0.024645
20.800000,-0.204809,-0.299158,-0.023498,,,,,,,,,,,-0.208122,-0.300459,-0.024604,0.116906,0.436722,0.454801,1.755318,-0.523690,-0.572847,-1.363055,-0.008273,1.113614,-0.003494,347.118089,-0.451841,1.325357,-2.022471
20.900000,-0.044082,-0.479862,-0.208902,,,,,,,,,,,-0.049194,-0.468774,-0.207669,0.192496,0.451739,0.446199,1.793173,-0.528331,-0.563603,-1.372132,-0.024261,0.930347,0.058147,346.319226,-0.664529,-0.490176,-1.317031
21.000000,-0.107105,-0.100359,-0.018029,,,,,,,,,,,-0.103064,-0.093718,-0.018559,0.261323,0.464667,0.438810,1.829292,-0.532196,-0.555239,-1.380155,-0.040047,1.014308,0.132286,345.796060,-0.867611,0.318031,-0.499223
21.100000,0.025352,0.027913,0.002369,,,,,,,,,,,0.027146,0.021074,0.001323,0.275444,0.466864,0.438047,1.839115,-0.532240,-0.553962,-1.382314,-0.028854,1.001892,0.076265,345.261914,-0.770064,0.192238,-1.023802
21.200000,-0.012217,-0.064663,0.068207,,,,,,,,,,,-0.006076,-0.075568,0.070365,0.266083,0.467311,0.438987,1.828093,-0.532759,-0.552336,-1.385417,-0.038261,1.003227,0.058597,345.273623,-0.835270,0.199693,-1.173243
21.300000,-0.018926,-0.296838,0.111787,,,,,,,,,,,-0.016954,-0.299483,0.109659,0.214267,0.470389,0.435525,1.751120,-0.542159,-0.543223,-1.387465,-0.075961,0.916904,0.033171,344.587520,-1.066055,-0.650525,-1.432795
21.400000,-0.054779,-0.343676,0.019278,,,,,,,,,,,-0.055732,-0.350643,0.018734,0.178650,0.476526,0.429739,1.681557,-0.552628,-0.531815,-1.390483,-0.031511,0.957970,0.059808,343.570462,-0.503593,-0.253134,-1.161226
21.500000,-0.152971,-0.320609,0.009266,,,,,,,,,,,-0.158913,-0.318243,0.006861,0.174382,0.486170,0.424311,1.641923,-0.560269,-0.519293,-1.400217,0.065608,1.124248,0.009738,343.271633,0.524648,1.360910,-1.564808
21.600000,-0.019566,-0.478538,-0.009020,142.938843,0.990000,32.876304,52.223357,112.348843,207.070300,4.748652,4.029364,20.941227,2.440000,-0.012425,-0.478305,-0.005595,0.199378,0.499858,0.416427,1.622356,-0.567910,-0.504118,-1.413653,-0.016956,0.938831,0.124678,343.254126,-0.245259,-0.479027,-0.309797
21.700000,0.197780,-0.074572,0.061232,,,,,,,,,,,0.203537,-0.068500,0.060795,0.185262,0.503210,0.407402,1.579496,-0.577359,-0.497437,-1.405643,-0.058347,0.929610,0.184589,342.142902,-0.585268,-0.556632,0.198203
21.800000,0.138061,0.119910,-0.038175,,,,,,,,,,,0.139464,0.110545,-0.042226,0.171376,0.497226,0.402722,1.567763,-0.581438,-0.502498,-1.385879,-0.045071,0.971127,0.050278,341.100202,-0.436973,-0.115866,-1.309916
21.900000,0.151348,0.079019,-0.193578,,,,,,,,,,,0.144957,0.092712,-0.194009,0.237768,0.496278,0.395225,1.635976,-0.580658,-0.510217,-1.368654,-0.001959,1.096655,0.103676,339.564687,-0.149070,1.147716,-0.946982
22.000000,0.038908,-0.066256,-0.143788,,,,,,,,,,,0.046704,-0.107023,-0.143407,0.319529,0.497527,0.394155,1.731512,-0.572928,-0.518497,-1.364738,-0.035846,0.975766,-0.021510,339.338989,-0.672759,-0.030144,-2.191138
22.100000,-0.027533,-0.692324,-0.135670,,,,,,,,,,,-0.027285,-0.695406,-0.142270,0.371902,0.510702,0.376052,1.726802,-0.585013,-0.505397,-1.359428,-0.010147,1.031367,0.025441,337.753208,-0.419215,0.525871,-1.782891
22.200000,-0.083638,-0.705593,-0.318284,,,,,,,,,,,-0.089702,-0.689717,-0.315897,0.500873,0.533390,0.351037,1.777459,-0.595936,-0.486802,-1.358858,-0.029489,0.964204,0.036339,335.712718,-0.712230,-0.131609,-1.661997
22.300000,-0.469247,0.202944,-0.076485,,,,,,,,,,,-0.471559,0.192413,-0.072124,0.628593,0.550315,0.347815,1.876081,-0.592432,-0.474483,-1.381601,0.090871,1.193361,0.095386,336.155128,0.342144,2.072082,-0.823550
22.400000,-0.391893,-0.112374,0.152880,,,,,,,,,,,-0.391249,-0.112438,0.156616,0.707924,0.560940,0.358963,1.949471,-0.586192,-0.461325,-1.421551,-0.002153,0.970601,0.015634,338.278536,-0.560576,-0.178458,-1.201209
22.500000,-0.406732,-0.055698,0.236461,,,,,,,,,,,-0.411961,-0.054807,0.239850,0.670091,0.565136,0.375005,1.908357,-0.585039,-0.444610,-1.468338,0.013426,1.020566,0.001729,340.618723,-0.203381,0.253917,-0.928038
22.600000,-0.483792,-0.079761,0.223792,142.864136,1.070000,34.000183,52.223333,112.274136,195.468742,4.748652,3.571744,20.941220,2.550000,-0.478457,-0.088900,0.222531,0.530020,0.570263,0.392598,1.761889,-0.583692,-0.424158,-1.522159,0.019768,1.037767,0.029543,343.383246,0.092784,0.382990,-0.174845
22.700000,-0.324499,-0.450655,0.115861,,,,,,,,,,,-0.322943,-0.464285,0.116622,-0.931667,0.579270,0.401217,0.272729,-0.586116,-0.399833,-1.557331,0.012073,1.002618,0.035356,345.297969,0.206928,0.026626,0.308901
22.800000,-0.284006,-0.205279,0.050172,,,,,,,,,,,-0.280108,-0.188713,0.044690,-2.106605,0.590611,0.400204,-0.943855,-0.591071,-0.376320,-1.536720,0.015921,1.013498,0.093947,346.397317,0.343100,0.138298,1.194540
22.900000,-0.174244,0.289863,-0.104427,,,,,,,,,,,-0.169696,0.296369,-0.109965,-2.426613,0.596589,0.404034,-1.268441,-0.586665,-0.369652,-1.519931,0.000191,1.096791,0.166872,347.319889,0.147691,0.961921,2.110843
23.000000,-0.044474,0.588709,-0.071532,,,,,,,,,,,-0.030367,0.586069,-0.067704,-2.698963,0.593793,0.418378,-1.496833,-0.571976,-0.380991,-1.509522,-0.049203,0.894923,0.086833,349.183095,-0.438748,-1.012029,1.450141
23.100000,0.100983,0.450648,0.195776,,,,,,,,,,,0.094071,0.439015,0.197030,-2.539194,0.579612,0.431014,-1.289586,-0.566999,-0.395905,-1.517522,-0.006937,1.003314,-0.071950,349.739661,0.074715,0.046450,-0.208916
23.200000,0.096921,0.293656,0.107055,,,,,,,,,,,0.100115,0.284726,0.105689,-2.214138,0.566354,0.442829,-0.931045,-0.566216,-0.403145,-1.514454,0.111917,1.011351,-0.007753,350.373131,1.425091,0.126884,0.365752
23.300000,-0.040969,0.073323,0.034128,,,,,,,,,,,-0.040473,0.067266,0.031687,-2.077392,0.560702,0.447014,-0.781788,-0.566525,-0.406005,-1.512209,0.086479,1.008850,-0.006496,350.525446,1.255493,0.103629,0.340911
23.400000,-0.022463,0.270403,-0.009294,,,,,,,,,,,-0.015616,0.269664,-0.012742,-2.109072,0.558897,0.451517,-0.803599,-0.564015,-0.406985,-1.507393,0.074170,1.004283,0.104156,350.758384,1.158671,0.061721,1.468701
23.500000,0.092714,0.143850,-0.010669,,,,,,,,,,,0.090500,0.146248,-0.006269,-2.067532,0.554922,0.452958,-0.745986,-0.561203,-0.414654,-1.515857,0.006863,1.020787,-0.011282,350.779801,0.461942,0.218684,0.255170
23.600000,0.138268,0.163800,-0.084785,142.141907,1.210000,41.368968,52.223314,111.551907,175.781252,4.748652,3.157693,20.941234,2.370000,0.141801,0.153920,-0.084209,-1.986960,0.550552,0.454337,-0.649379,-0.558691,-0.422284,-1.523991,0.011154,0.968550,0.096817,350.295171,0.473418,-0.297545,1.228197
23.700000,0.095751,0.152375,0.031813,,,,,,,,,,,0.097523,0.148720,0.027515,-1.745260,0.546397,0.452719,-0.401076,-0.560027,-0.427623,-1.530280,0.050639,1.024425,0.011057,349.390386,0.861110,0.247573,0.263028
23.800000,0.198102,0.054114,-0.046136,,,,,,,,,,,0.202123,0.050551,-0.044865,-1.369071,0.543417,0.448597,-0.023935,-0.562633,-0.432310,-1.534677,0.079547,1.049367,0.041911,348.317982,1.129267,0.490529,0.421652
23.900000,0.280710,0.111530,0.098030,,,,,,,,,,,0.284973,0.112445,0.102816,-0.848516,0.538146,0.442805,0.496802,-0.567748,-0.438140,-1.528019,-0.059966,0.924548,0.099120,347.012656,-0.226730,-0.730768,0.766888
24.000000,0.261073,0.486043,0.045173,,,,,,,,,,,0.258382,0.491750,0.039616,-0.536297,0.524220,0.442233,0.829499,-0.572179,-0.449648,-1.501915,-0.004932,1.016585,0.088951,345.725437,0.401977,0.186070,0.373133
24.100000,0.072767,0.170783,-0.071279,,,,,,,,,,,0.073547,0.145093,-0.072319,-0.363036,0.514029,0.446116,1.037503,-0.566533,-0.464526,-1.492014,0.050648,1.013405,-0.007909,345.997856,0.888659,0.161881,-0.741483
24.200000,0.011330,-0.201361,-0.026812,,,,,,,,,,,0.011028,-0.210891,-0.028340,-0.270457,0.517328,0.439381,1.115018,-0.569993,-0.463039,-1.489116,0.028474,0.979169,-0.045644,345.763431,0.631442,-0.171588,-1.165994
24.300000,0.049621,-0.369854,-0.067604,,,,,,,,,,,0.050253,-0.371868,-0.069710,-0.178935,0.527800,0.425476,1.162767,-0.578986,-0.452914,-1.488609,0.007550,1.001082,0.084544,344.934350,0.393337,0.043712,0.090243
24.400000,-0.032269,-0.249521,-0.037726,,,,,,,,,,,-0.032033,-0.254377,-0.038685,-0.112583,0.536826,0.414277,1.192441,-0.585922,-0.443699,-1.489828,0.005881,0.993565,0.047966,344.527591,0.350636,-0.030964,-0.266670
24.500000,-0.054684,-0.357413,-0.082365,,,,,,,,,,,-0.052162,-0.364419,-0.083367,-0.064413,0.547186,0.405083,1.205190,-0.590743,-0.432996,-1.497608,0.010387,0.972089,0.062822,344.411430,0.358398,-0.247432,-0.053500
24.600000,-0.028870,-0.341431,-0.087073,141.695557,0.800000,21.607592,52.223292,111.105557,151.875016,4.748652,3.784341,20.941275,3.000000,-0.031266,-0.337765,-0.080128,0.029295,0.558578,0.393439,1.258564,-0.596159,-0.421620,-1.504331,0.016324,1.053444,0.092923,344.190652,0.360340,0.545774,0.291669
24.700000,0.011559,-0.154898,-0.177183,,,,,,,,,,,0.009838,-0.182677,-0.182305,0.255303,0.569465,0.381477,1.451966,-0.598489,-0.414706,-1.508164,0.007324,0.980035,0.158212,343.845294,0.144805,-0.176555,0.944193
24.800000,0.012067,0.163718,-0.082049,,,,,,,,,,,0.014497,0.148539,-0.087621,0.457172,0.572773,0.379185,1.655267,-0.594606,-0.417831,-1.507949,0.040515,1.005678,0.122606,343.855715,0.345205,0.075043,0.589369
24.900000,0.039505,0.096080,0.014298,,,,,,,,,,,0.040015,0.101704,0.010756,0.504227,0.570713,0.381654,1.715650,-0.591284,-0.423092,-1.505354,0.056714,0.974953,0.033116,343.940492,0.463552,-0.224629,-0.309794
25.000000,0.015489,0.010262,-0.022959,,,,,,,,,,,0.015437,0.007005,-0.016590,0.510209,0.569988,0.380812,1.722978,-0.591399,-0.424668,-1.501760,0.070316,1.001938,0.047372,343.866520,0.586997,0.042365,-0.204051
25.100000,0.018994,0.033573,-0.060630,,,,,,,,,,,0.031954,0.008386,-0.060041,0.585287,0.571424,0.377741,1.795682,-0.590815,-0.426289,-1.496836,0.070901,1.055090,0.096031,343.802931,0.533543,0.567073,0.235516
25.200000,0.029836,0.057527,-0.089906,,,,,,,,,,,0.020632,0.068988,-0.096587,0.701948,0.572306,0.378972,1.922116,-0.585951,-0.430701,-1.495073,0.008543,0.906783,0.057721,343.781473,-0.171962,-0.886027,-0.129865
25.300000,-0.011093,0.078392,-0.046223,,,,,,,,,,,0.006169,0.046878,-0.048656,0.752197,0.572867,0.377003,1.973674,-0.584730,-0.433336,-1.489340,0.094179,1.077998,0.074738,343.509068,0.610595,0.797433,-0.000847
25.400000,0.037894,-0.033250,-0.100204,,,,,,,,,,,0.017168,0.011760,-0.099622,0.856235,0.574103,0.379070,2.086852,-0.579770,-0.436545,-1.489055,0.039357,0.898106,0.028665,343.747399,-0.009603,-0.966437,-0.414609
25.500000,0.026148,-0.124772,-0.037490,,,,,,,,,,,0.037351,-0.146992,-0.025189,0.866523,0.577333,0.370275,2.078934,-0.583670,-0.434633,-1.479304,0.124863,1.050114,0.084637,342.518715,0.788667,0.532481,0.047230
25.600000,-0.015900,0.002951,-0.065011,140.708253,0.730000,19.716928,52.223272,110.118253,146.953144,4.748652,4.029364,20.941308,3.000000,-0.019886,-0.009915,-0.081078,0.957442,0.581360,0.366802,2.163620,-0.582034,-0.434406,-1.475122,0.042575,1.006407,0.037988,341.819975,-0.105963,0.107700,-0.404076
25.700000,0.066508,-0.105732,0.078508,,,,,,,,,,,0.074138,-0.099322,0.083017,0.911770,0.580882,0.364263,2.111639,-0.584972,-0.433228,-1.472991,0.108719,0.961583,0.061363,341.259020,0.573629,-0.329856,-0.218653
25.800000,-0.114782,-0.020810,-0.009480,,,,,,,,,,,-0.102136,-0.029288,-0.012719,0.906927,0.582199,0.363505,2.099339,-0.586731,-0.429709,-1.476893,0.107079,1.085094,0.040471,340.805745,0.587046,0.877743,-0.397285
25.900000,0.007149,-0.302294,0.039053,,,,,,,,,,,0.001215,-0.273760,0.034252,0.936633,0.585587,0.362621,2.117011,-0.588278,-0.423667,-1.484333,0.066278,0.918153,-0.004782,340.595906,0.210293,-0.766004,-0.770319
26.000000,-0.117334,-0.245998,-0.128271,,,,,,,,,,,-0.106674,-0.277496,-0.114866,0.989280,0.593341,0.353635,2.135585,-0.593828,-0.412593,-1.487233,0.119478,1.105940,0.117995,339.930158,0.734222,1.073141,0.466912
26.100000,0.079012,-0.187323,-0.037619,,,,,,,,,,,0.060058,-0.174941,-0.056612,1.146297,0.601122,0.347692,2.275026,-0.592669,-0.408033,-1.484571,-0.008453,0.887000,0.100768,339.495971,-0.628941,-1.071649,0.344378
26.200000,0.021895,0.044851,-0.003774,,,,,,,,,,,0.031994,0.021021,0.008464,1.075760,0.600827,0.342709,2.194251,-0.596701,-0.406823,-1.479905,0.113585,1.065785,0.140845,338.786679,0.594173,0.685619,0.658606
26.300000,0.074991,0.155819,0.088792,,,,,,,,,,,0.062247,0.161203,0.063881,1.061549,0.597681,0.346977,2.195551,-0.593967,-0.411798,-1.478882,0.006699,0.919829,0.078574,339.090290,-0.460085,-0.744804,0.040637
26.400000,0.029682,0.062575,0.100246,,,,,,,,,,,0.036750,0.075758,0.124073,0.876936,0.589726,0.351270,2.022921,-0.597397,-0.414660,-1.480431,0.109491,1.020308,0.066086,339.172040,0.686914,0.239185,-0.147551
26.500000,0.044743,0.035917,-0.058038,,,,,,,,,,,0.043385,0.016103,-0.057046,0.870902,0.588814,0.351414,2.020193,-0.596978,-0.416437,-1.478074,0.052914,0.982019,0.054800,338.096460,0.124237,-0.134167,-0.280192
26.600000,0.120750,0.141231,0.000411,140.062684,0.740000,19.595120,52.223247,109.472684,148.359394,4.748652,4.029364,20.941341,3.060000,0.121323,0.143365,-0.000833,0.863931,0.586803,0.349745,2.019780,-0.596169,-0.421797,-1.467992,0.057175,1.052225,0.136310,333.269789,0.124102,0.563979,0.430023
26.700000,0.077573,0.130660,0.047104,,,,,,,,,,,0.078801,0.122925,0.028522,0.829023,0.581745,0.352509,2.003329,-0.593811,-0.429753,-1.460158,0.014096,0.918352,0.005380,330.299946,-0.315249,-0.740712,-0.930296
26.800000,0.054317,-0.130922,0.090926,,,,,,,,,,,0.067967,-0.122069,0.093564,0.716036,0.577152,0.351075,1.888635,-0.598897,-0.430067,-1.454828,0.063060,0.973868,0.056943,331.387639,0.264114,-0.190393,-0.519148
26.900000,-0.132338,0.198200,0.079053,,,,,,,,,,,-0.124495,0.166119,0.087728,0.664484,0.575560,0.354165,1.838814,-0.599999,-0.428120,-1.460588,0.066490,1.050212,0.053224,334.547563,0.476550,0.775040,-0.418151
